#Network | Station | Latitude | Longitude | Elevation | Sitename | StartTime | EndTime

#DATACENTER=IRISDMC,http://ds.iris.edu
AC|KBN|40.6236|20.787399|800.0|Korce, Albania|2009-12-22T00:00:00|2599-12-31T23:59:59
AC|LSK|40.149899|20.5987|960.0|LSK|2010-01-01T00:00:00|2599-12-31T23:59:59
AC|PHP|41.6847|20.4408|670.0|Peshkopi, Albania|2009-12-22T00:00:00|2599-12-31T23:59:59
AC|PUK|42.042599|19.892599|900.0|Puke, Albania|2009-12-22T00:00:00|2599-12-31T23:59:59
AC|SRN|39.880001|20.0005|20.0|Sarande, Albania|2010-01-01T00:00:00|2599-12-31T23:59:59
AC|VLO|40.468601|19.495501|80.0|Vlore, Albania|2009-12-22T00:00:00|2599-12-31T23:59:59
AE|113A|32.768299|-113.766701|118.0|Mohawk Valley, Roll, AZ, USA|2009-01-28T00:00:00|2599-12-31T23:59:59
AE|319A|31.3757|-109.280899|1187.0|Douglas, AZ, USA|2011-12-01T00:00:00|2599-12-31T23:59:59
AE|BABIT|35.745548|-112.422218|1693.6|Valle/Cataract Creek|2017-10-27T00:00:00|2599-12-31T23:59:59
AE|BARN|35.27668|-111.73571|2254.0|Flagstaff|2017-10-27T00:00:00|2599-12-31T23:59:59
AE|DUN6|32.553799|-109.090103|1259.0|Lazy B Ranch|2016-01-01T00:00:00|2599-12-31T23:59:59
AE|HANNA|33.63636|-109.32029|2796.0|Alpine/Hannagan Meadow|2017-10-27T00:00:00|2599-12-31T23:59:59
AE|PRCT|35.055786|-112.710289|1410.0|Prescott|2017-10-27T00:00:00|2599-12-31T23:59:59
AE|TONTO|33.649147|-111.007675|660.6|Roosevelt/Tonto Basin|2017-10-27T00:00:00|2599-12-31T23:59:59
AE|U15A|36.428001|-112.291496|2489.0|North Rim, AZ, USA|2011-12-01T00:00:00|2599-12-31T23:59:59
AE|W13A|35.097382|-113.894318|2113.0|Hualapai Mountain Park, Kingman, AZ, USA|2011-12-01T00:00:00|2599-12-31T23:59:59
AE|X16A|34.417801|-111.441101|1759.4|Lo Mia Camp, Pine, AZ, USA|2009-02-04T00:00:00|2599-12-31T23:59:59
AE|X18A|34.529301|-109.950104|1751.0|Snowflake, AZ, USA|2011-12-01T00:00:00|2599-12-31T23:59:59
AE|Y14A|33.938301|-113.004799|730.7|Wickenburg, AZ, USA|2011-12-01T00:00:00|2599-12-31T23:59:59
AF|ALKP|-29.941839|22.24667|1065.0|Alkantpan, Northen Cape, South Africa|2018-09-07T00:00:00|2599-12-31T23:59:59
AF|GRHM|-33.276688|26.376724|610.0|Grahamstown, Eastern Cape, South Africa|2016-06-20T00:00:00|2599-12-31T23:59:59
AF|WIN|-22.5667|17.1|1728.0|Windhoek, Namibia|2004-09-01T00:00:00|2599-12-31T23:59:59
AF|ZOMB|-15.3833|35.349998|885.0|Zomba, Malawi|2006-06-01T00:00:00|2599-12-31T23:59:59
AG|CCAR|33.917|-91.772|72.0|Cane Creek, AR|2010-02-24T00:00:00|2599-12-31T23:59:59
AG|FCAR|35.89|-92.124|190.0|Ozark Folk Center,AR|2010-02-16T00:00:00|2599-12-31T23:59:59
AG|HHAR|36.282|-93.94|421.0|Hobbs,AR|2010-03-03T00:00:00|2599-12-31T23:59:59
AG|LCAR|36.07|-91.154|103.0|Lake Charles,AR|2010-02-10T00:00:00|2599-12-31T23:59:59
AG|WHAR|35.29|-92.289|184.0|Woolly Hollow State Park,AR|2010-02-15T00:00:00|2599-12-31T23:59:59
AG|WLAR|33.688|-93.112|77.0|White Oak Lake,AR|2010-02-23T00:00:00|2599-12-31T23:59:59
AG|X40A|34.4873|-92.8342|158.0|Basin Creek Farm, Marlvern, AR|2016-06-22T17:00:00|2599-12-31T23:59:59
AG|Z41A|33.2577|-92.803|62.0|Richland Creek Farm, El Dorado, AR|2016-08-10T17:00:00|2599-12-31T23:59:59
AI|BELA|-77.875|-34.6269|262.0|BELGRANO II Permanent Argentinean Antarctic Base|2009-01-16T00:00:00|2599-12-31T23:59:59
AI|ESPZ|-63.398102|-56.996399|31.0|ESPERANZA Permanent Argentinean Antarctic Base|2005-01-26T00:00:00|2599-12-31T23:59:59
AI|JUBA|-62.237301|-58.662701|16.0|Carlini Permanent Argentinean Antarctic Base|2002-03-05T00:00:00|2599-12-31T23:59:59
AI|ORCD|-60.738098|-44.736099|20.0|Orcadas Permanent Argentinean Antarctic Base|1997-03-01T00:00:00|2599-12-31T23:59:59
AI|SMAI|-68.130203|-67.105904|9.0|San Martin Permanent Argentinean Antarctic Base|2007-02-07T00:00:00|2599-12-31T23:59:59
AK|A19K|70.2043|-161.0713|24.0|Wainwright, AK, USA|2020-09-23T00:00:00|2599-12-31T23:59:59
AK|A21K|71.3221|-156.6175|5.0|Barrow, AK, USA|2020-03-03T00:00:00|2599-12-31T23:59:59
AK|A22K|71.0033|-154.9742|6.0|Sinclair Lake, AK, USA|2020-09-23T00:00:00|2599-12-31T23:59:59
AK|ANM|64.5646|-165.3732|338.0|Anvil Mountain, AK, USA|2010-06-21T00:00:00|2599-12-31T23:59:59
AK|ATKA|52.201599|-174.197495|55.0|Atka Island, AK, USA|2002-10-03T00:00:00|2599-12-31T23:59:59
AK|B18K|69.3641|-161.8016|222.0|Kokolik River, AK, USA|2020-09-23T00:00:00|2599-12-31T23:59:59
AK|B20K|70.0079|-157.1599|74.6|Meade River, AK, USA|2020-09-23T00:00:00|2599-12-31T23:59:59
AK|B22K|70.34|-153.4196|49.7|Teshekpuk Lake, AK, USA|2020-09-23T00:00:00|2599-12-31T23:59:59
AK|BAL|61.035999|-142.346207|1318.0|Baldy Mountain, AK, USA|2010-06-18T00:00:00|2599-12-31T23:59:59
AK|BARK|60.403|-142.493103|1389.6|Barkley Ridge, AK, USA|2013-01-01T00:00:00|2599-12-31T23:59:59
AK|BARN|61.059502|-141.662201|1689.0|Barnard Glacier, AK, USA|2013-01-01T00:00:00|2599-12-31T23:59:59
AK|BAW|61.1501|-148.1501|542.0|Barry Arm West, AK, USA|2020-09-04T00:00:00|2599-12-31T23:59:59
AK|BCP|59.9534|-139.6369|421.8|Bancas Point, AK, USA|2011-08-15T00:00:00|2599-12-31T23:59:59
AK|BERG|60.3932|-143.700394|624.0|Berg Lake, AK, USA|2013-01-01T00:00:00|2599-12-31T23:59:59
AK|BESE|58.579201|-134.855896|867.0|Bessie Mountain, AK, USA|2003-09-20T00:00:00|2599-12-31T23:59:59
AK|BGLC|60.1205|-143.2841|10.0|Bering Glacier BLM Camp, AK, USA|2005-07-16T00:00:00|2599-12-31T23:59:59
AK|BMR|60.9677|-144.6051|842.0|Bremner River, AK, USA|2000-08-07T00:00:00|2599-12-31T23:59:59
AK|BRLK|59.7511|-150.9063|409.0|Bradley Lake, AK, USA|2008-07-01T00:00:00|2599-12-31T23:59:59
AK|C16K|68.2746|-165.3436|102.0|Lisburne Hills, AK, USA|2020-09-23T00:00:00|2599-12-31T23:59:59
AK|C18K|68.6483|-161.1943|845.0|Utukok River, AK, USA|2020-09-23T00:00:00|2599-12-31T23:59:59
AK|C19K|69.1049|-159.5874|745.0|Lookout Ridge, AK, USA|2020-09-23T00:00:00|2599-12-31T23:59:59
AK|C21K|69.1565|-154.7833|409.0|Knifeblade Ridge, AK, USA|2020-09-23T00:00:00|2599-12-31T23:59:59
AK|C23K|69.836|-150.6126|179.0|Itkillik River, AK, USA|2020-09-23T00:00:00|2599-12-31T23:59:59
AK|C26K|69.9175|-144.9122|139.0|Camden Bay, AK, USA|2020-09-23T00:00:00|2599-12-31T23:59:59
AK|C27K|69.626|-143.7114|392.0|Jago River, AK, USA|2020-09-23T00:00:00|2599-12-31T23:59:59
AK|CAPN|60.768299|-151.1539|47.0|Captain Cook Nikiski, AK, USA|2013-07-01T00:00:00|2599-12-31T23:59:59
AK|CAST|63.4188|-152.084396|611.0|Castle Rocks, AK, USA|2006-08-05T00:00:00|2599-12-31T23:59:59
AK|CCB|64.645302|-147.805298|233.0|Clear Creek Butte, AK, USA|2009-06-30T00:00:00|2599-12-31T23:59:59
AK|CDVT|60.493599|-145.469604|152.0|Cordova Airport, AK, USA|2010-11-10T00:00:00|2599-12-31T23:59:59
AK|CHI|55.8218|-155.6225|203.0|Chirikof Island, AK, USA|2008-09-15T00:00:00|2599-12-31T23:59:59
AK|CHN|54.831001|-159.589493|71.0|Chernabura Island, AK, USA|2013-06-27T00:00:00|2599-12-31T23:59:59
AK|CHUM|63.882702|-152.315201|217.0|Lake Minchumina, AK, USA|2004-06-02T00:00:00|2599-12-31T23:59:59
AK|CHX|60.063099|-141.117798|1085.0|Chaix Hills, AK, USA|2018-09-05T00:00:00|2599-12-31T23:59:59
AK|CNP|59.5251|-151.2373|564.0|China Poot, AK, USA|2008-07-24T00:00:00|2599-12-31T23:59:59
AK|CRQ|60.7523|-143.092606|1392.3|Cirque, AK, USA|2010-06-20T00:00:00|2599-12-31T23:59:59
AK|CUT|62.4058|-150.262497|574.0|Chulitna, AK, USA|2014-05-15T00:00:00|2599-12-31T23:59:59
AK|CYK|60.082298|-142.487198|23.0|Cape Yakataga, AK, USA|2010-07-21T00:00:00|2599-12-31T23:59:59
AK|D17K|67.6988|-163.0831|172.0|Noatak River, AK, USA|2020-10-21T00:00:00|2599-12-31T23:59:59
AK|D20K|68.7132|-156.6132|577.0|Etivluk River, AK, USA|2020-09-23T00:00:00|2599-12-31T23:59:59
AK|D22K|68.8799|-152.6821|532.0|Ayikyak River, AK, USA|2020-09-23T00:00:00|2599-12-31T23:59:59
AK|D24K|69.1532|-148.8233|292.0|Happy Valley, AK, USA|2020-10-02T00:00:00|2599-12-31T23:59:59
AK|D25K|69.322|-146.3751|770.0|Kavik River, AK, USA|2020-09-23T00:00:00|2599-12-31T23:59:59
AK|DAM2|59.755299|-150.855499|363.0|Bradley Dam 2, AK, USA|2009-06-20T00:00:00|2599-12-31T23:59:59
AK|DHY|63.075298|-147.3759|1611.0|Denali Highway, AK, USA|2008-07-09T00:00:00|2599-12-31T23:59:59
AK|DIV|61.1292|-145.7749|941.4|Divide Microwave, AK, USA|1999-01-07T00:00:00|2599-12-31T23:59:59
AK|DOT|63.648201|-144.069702|670.0|Dot Lake, AK, USA|2003-10-15T00:00:00|2599-12-31T23:59:59
AK|E18K|67.4213|-160.6027|297.0|Tukpahlearik Creek, AK, USA|2020-09-23T00:00:00|2599-12-31T23:59:59
AK|E19K|67.4572|-157.2316|441.0|Redstone River, AK, USA|2020-09-23T00:00:00|2599-12-31T23:59:59
AK|E21K|68.4414|-153.9721|653.0|Killik River, AK, USA|2020-09-23T00:00:00|2599-12-31T23:59:59
AK|E24K|68.0748|-148.4868|847.0|Your Creek, AK, USA|2020-09-23T00:00:00|2599-12-31T23:59:59
AK|E27K|68.1861|-141.5951|654.0|Coleen River, AK, USA|2020-09-23T00:00:00|2599-12-31T23:59:59
AK|ER01|61.3237|-149.5412|198.0|Skyline Family Fellowship, Eagle River, AK, USA|2021-01-06T00:00:00|2599-12-31T23:59:59
AK|ER02|61.3166|-149.5721|104.0|Eagle River Fire Station 11, Eagle River, AK, USA|2020-11-03T00:00:00|2599-12-31T23:59:59
AK|ER03|61.3145|-149.5466|151.0|Homestead Elementary School, Eagle River, AK, USA|2021-02-24T00:00:00|2599-12-31T23:59:59
AK|ER04|61.3453|-149.5476|119.0|Fire Lake Elementary School, Eagle River, AK, USA|2021-02-24T00:00:00|2599-12-31T23:59:59
AK|EYAK|60.548698|-145.75|133.9|Cordova Ski Area, AK, USA|2002-10-03T00:00:00|2599-12-31T23:59:59
AK|F15K|65.7077|-164.6483|388.0|North Star Ditch, AK, USA|2020-09-23T00:00:00|2599-12-31T23:59:59
AK|F18K|66.6001|-159.6514|27.0|Selawik, AK, USA|2020-10-21T00:00:00|2599-12-31T23:59:59
AK|F20K|67.0486|-155.7251|136.0|Avaraart Lake, AK, USA|2020-09-23T00:00:00|2599-12-31T23:59:59
AK|F21K|67.2221|-153.483|597.0|Alatna River, AK, USA|2020-09-23T00:00:00|2599-12-31T23:59:59
AK|FA01|64.834801|-147.937103|263.0|Chena-GS Fire Station, Fairbanks, AK, USA|2002-11-15T00:00:00|2599-12-31T23:59:59
AK|FA02|64.845596|-148.009003|194.0|Ester Fire Station, AK, USA|2002-10-11T00:00:00|2599-12-31T23:59:59
AK|FA05|64.839302|-147.751602|135.0|Denali Elem. School, Fairbanks, AK, USA|2003-08-13T00:00:00|2599-12-31T23:59:59
AK|FA06|64.8461|-147.695694|136.0|Nordale Elem. School, Fairbanks, AK, USA|2003-08-13T00:00:00|2599-12-31T23:59:59
AK|FA07|64.826698|-147.694595|135.0|Arctic Light Elem. School, Fairbanks, AK, USA|2003-08-13T00:00:00|2599-12-31T23:59:59
AK|FA09|64.8377|-147.8172|135.0|DNR, Fairbanks, AK, USA|2003-07-28T00:00:00|2599-12-31T23:59:59
AK|FA10|64.818604|-147.778397|133.0|Bus Barn, Fairbanks, AK, USA|2003-06-30T00:00:00|2599-12-31T23:59:59
AK|FA11|64.8536|-147.8382|137.0|Cold Climate Housing Res. Cntr, Fairbanks, AK, USA|2015-02-04T00:00:00|2599-12-31T23:59:59
AK|FA12|64.826897|-147.868393|436.0|Watershed School, Fairbanks, AK, USA|2007-11-09T00:00:00|2599-12-31T23:59:59
AK|FIRE|61.142601|-150.2164|62.0|Fire Island, AK, USA|2013-07-20T00:00:00|2599-12-31T23:59:59
AK|FYU|66.565697|-145.234207|137.0|Fort Yukon, AK, USA|2009-07-23T00:00:00|2599-12-31T23:59:59
AK|G17K|65.5011|-160.6514|338.0|Kiwalik Mountain, AK, USA|2020-09-23T00:00:00|2599-12-31T23:59:59
AK|G19K|66.1434|-157.087|391.0|Purcell Mountains, AK, USA|2020-09-23T00:00:00|2599-12-31T23:59:59
AK|G23K|66.7108|-150.0239|746.0|Bananza Creek, AK, USA|2020-09-23T00:00:00|2599-12-31T23:59:59
AK|G24K|66.7004|-147.4754|503.0|Hadweenzic River, AK, USA|2020-09-23T00:00:00|2599-12-31T23:59:59
AK|G27K|66.8088|-141.6549|686.0|Doyon Strip, AK, USA|2020-09-23T00:00:00|2599-12-31T23:59:59
AK|GAMB|63.775799|-171.703598|5.0|Gambell, AK, USA|2002-02-23T00:00:00|2599-12-31T23:59:59
AK|GCSA|64.746101|-156.879196|45.0|Galena City School, AK, USA|2015-07-01T00:00:00|2599-12-31T23:59:59
AK|GHO|61.771|-148.925995|1032.0|Gloryhole, AK, USA|2011-05-30T00:00:00|2599-12-31T23:59:59
AK|GLB|61.4417|-143.8123|854.9|Gilahina Butte, AK, USA|2010-09-12T00:00:00|2599-12-31T23:59:59
AK|GLI|60.8792|-147.095901|430.0|Glacier Island, AK, USA|2010-07-26T00:00:00|2599-12-31T23:59:59
AK|GOAT|60.580502|-144.729202|895.5|Goat Mountain, AK, USA|2013-01-01T00:00:00|2599-12-31T23:59:59
AK|GREN|63.9738|-145.6949|414.0|Z|2020-09-22T00:00:00|2599-12-31T23:59:59
AK|GRES|63.9451|-145.7281|445.0|Z|2020-09-29T00:00:00|2599-12-31T23:59:59
AK|GRNC|60.731499|-141.755798|2116.0|Granite Creek, AK, USA|2013-01-01T00:00:00|2599-12-31T23:59:59
AK|H16K|64.6379|-162.239|216.0|Elim, AK, USA|2020-09-29T00:00:00|2599-12-31T23:59:59
AK|H17K|64.937|-159.9126|396.0|Granite Mountain, AK, USA|2020-09-23T00:00:00|2599-12-31T23:59:59
AK|H20K|65.4924|-154.8808|514.0|Anotleneega Mountain, AK, USA|2020-09-23T00:00:00|2599-12-31T23:59:59
AK|H21K|65.6571|-152.805|520.0|Melozitna River, AK, USA|2019-10-04T00:00:00|2599-12-31T23:59:59
AK|H22K|65.8937|-151.3773|561.0|Ishtalitna Creek, AK, USA|2019-10-04T00:00:00|2599-12-31T23:59:59
AK|H24K|65.8371|-147.8781|814.0|Noodor Dome, AK, USA|2019-10-04T00:00:00|2599-12-31T23:59:59
AK|HDA|64.4091|-146.9482|437.0|Harding Lake, AK, USA|2012-10-01T00:00:00|2599-12-31T23:59:59
AK|HIN|60.396|-146.503494|622.9|Hinchinbrook, AK, USA|2009-11-01T00:00:00|2599-12-31T23:59:59
AK|HOM|59.6572|-151.651505|221.0|Homer Trailer, AK, USA|2009-06-18T00:00:00|2599-12-31T23:59:59
AK|I21K|65.18|-151.9822|248.0|Tanana, AK, USA|2019-12-02T00:00:00|2599-12-31T23:59:59
AK|I23K|65.1479|-149.3603|149.0|Minto, Yukon-Koyukuk, AK, USA|2019-09-17T00:00:00|2599-12-31T23:59:59
AK|I26K|65.3064|-143.1541|338.0|Coal Creek Mining Camp, AK, USA|2019-09-17T00:00:00|2599-12-31T23:59:59
AK|I27K|65.6035|-141.6153|874.0|Kandik River, AK, USA|2019-10-04T00:00:00|2599-12-31T23:59:59
AK|J17K|63.3965|-159.0777|323.0|VABM Dome, AK, USA|2019-10-04T00:00:00|2599-12-31T23:59:59
AK|J19K|63.994|-155.6214|389.0|Poorman, AK, USA|2019-10-04T00:00:00|2599-12-31T23:59:59
AK|J20K|64.1767|-154.1467|314.0|Nowitna River, AK, USA|2019-10-04T00:00:00|2599-12-31T23:59:59
AK|J25K|64.613|-145.3697|949.0|Salcha River, AK, USA|2019-10-04T00:00:00|2599-12-31T23:59:59
AK|J26L|64.5012|-143.5636|1144.0|Joseph Creek, AK, USA|2019-10-04T00:00:00|2599-12-31T23:59:59
AK|JIS|58.275799|-134.384796|10.0|Juneau Island, AK, USA|2001-04-11T00:00:00|2599-12-31T23:59:59
AK|K13K|61.9331|-164.6555|204.2|Kusilvak Mountain, AK, USA|2020-09-23T00:00:00|2599-12-31T23:59:59
AK|K203|61.2201|-149.7453|79.0|Anchorage, St Christopher Episcopal Church, AK, US|2009-07-01T00:00:00|2599-12-31T23:59:59
AK|K204|61.1758|-150.011505|30.0|Anchorage, Signature Flight Support, AK, USA|2009-07-01T00:00:00|2599-12-31T23:59:59
AK|K205|61.199402|-149.916306|51.0|Anchorage, West High School, AK, USA|2013-01-24T00:00:00|2599-12-31T23:59:59
AK|K208|61.1763|-149.9216|20.0|Anchorage, Spenard Recreation Center, AK, USA|1995-08-01T00:00:00|2599-12-31T23:59:59
AK|K209|61.184601|-149.747192|96.0|Anchorage, Scenic Park Bible Church, AK, USA|2009-07-01T00:00:00|2599-12-31T23:59:59
AK|K20K|63.3569|-154.07|548.0|Telida, AK, USA|2019-10-04T00:00:00|2599-12-31T23:59:59
AK|K210|61.1292|-149.931|17.0|Anchorage, Mears Jr High School, AK, USA|1995-08-01T00:00:00|2599-12-31T23:59:59
AK|K211|61.149101|-149.857803|34.0|Anchorage, Fire Department HQ 12, AK, USA|2011-02-03T00:00:00|2599-12-31T23:59:59
AK|K212|61.155602|-149.793396|70.0|Anchorage, BLM Office, AK, USA|2009-07-01T00:00:00|2599-12-31T23:59:59
AK|K213|61.112801|-149.859497|51.0|Anchorage, ASD Operation Center, AK, USA|1995-08-01T00:00:00|2599-12-31T23:59:59
AK|K214|61.123501|-149.7677|175.0|Anchorage, OMalley Fire Station, AK, USA|2008-07-01T00:00:00|2599-12-31T23:59:59
AK|K215|61.086201|-149.752106|284.0|Anchorage, Rabbit Creek Fire Station, AK, USA|1995-08-01T00:00:00|2599-12-31T23:59:59
AK|K217|61.396|-149.515503|72.0|Chugiak Fire Station, AK, USA|1995-08-01T00:00:00|2599-12-31T23:59:59
AK|K218|61.592602|-149.133194|87.0|Palmer, National Tsunami Warning Center, AK, USA|2009-11-01T00:00:00|2599-12-31T23:59:59
AK|K220|61.153999|-150.055206|68.0|Anchorage, Kincaid Park, AK, USA|2009-07-01T00:00:00|2599-12-31T23:59:59
AK|K221|61.1525|-149.951202|38.0|Anchorage, St. James Orthodox Church, AK, USA|2009-07-01T00:00:00|2599-12-31T23:59:59
AK|K222|61.087601|-149.836594|39.0|Anchorage, Chapel by the Sea, AK, USA|2009-07-01T00:00:00|2599-12-31T23:59:59
AK|K223|61.233799|-149.867493|43.0|Anchorage, Government Hill Elem. School, AK, USA|2009-11-03T00:00:00|2599-12-31T23:59:59
AK|K24K|63.8036|-145.7784|724.0|Donnelly Dome, AK, USA|2019-10-17T00:00:00|2599-12-31T23:59:59
AK|K27K|64.0292|-142.0758|732.0|Chicken, AK, USA|2019-12-19T00:00:00|2599-12-31T23:59:59
AK|KAI|59.9268|-144.418793|316.0|Kayak Island, AK, USA|2011-07-10T00:00:00|2599-12-31T23:59:59
AK|KIAG|60.9231|-142.360504|1752.2|Kiagna River, AK, USA|2013-01-01T00:00:00|2599-12-31T23:59:59
AK|KLU|61.4924|-145.9227|1047.1|Klutina Pass, AK, USA|2008-09-13T00:00:00|2599-12-31T23:59:59
AK|KNK|61.413101|-148.458496|598.0|Knik Glacier, AK, USA|2010-06-13T00:00:00|2599-12-31T23:59:59
AK|L14K|61.3416|-162.6829|41.0|Kuka Creek, AK, USA|2020-09-23T00:00:00|2599-12-31T23:59:59
AK|L16K|61.7105|-159.4747|227.0|Owhat River, AK, USA|2020-10-21T00:00:00|2599-12-31T23:59:59
AK|L17K|62.1344|-158.2972|338.0|Donlin, AK, USA|2020-05-01T00:00:00|2599-12-31T23:59:59
AK|L18K|62.2195|-156.6886|329.0|Granite Mountain, AK, USA|2019-10-04T00:00:00|2599-12-31T23:59:59
AK|L19K|62.1816|-154.8543|650.0|White Mountain, AK, USA|2019-10-04T00:00:00|2599-12-31T23:59:59
AK|L20K|62.4787|-153.8798|673.0|Farewell, AK, USA|2019-10-04T00:00:00|2599-12-31T23:59:59
AK|L22K|62.5258|-150.7703|817.0|Petersville, AK, USA|2019-10-17T00:00:00|2599-12-31T23:59:59
AK|LOGN|60.824001|-141.004807|1663.1|Logan Glacier, AK, USA|2013-01-01T00:00:00|2599-12-31T23:59:59
AK|M11K|60.3849|-166.2011|3.0|Mekoryuk, AK, USA|2020-10-21T00:00:00|2599-12-31T23:59:59
AK|M14K|60.7515|-161.96|19.0|Bethel, AK, USA|2020-10-21T00:00:00|2599-12-31T23:59:59
AK|M16K|61.0224|-158.9593|394.0|Timber Creek, AK, USA|2020-09-23T00:00:00|2599-12-31T23:59:59
AK|M19K|61.9037|-154.3915|521.0|Big River Lodge, Big River, AK, USA|2019-09-10T00:00:00|2599-12-31T23:59:59
AK|M20K|61.8823|-153.1318|1107.0|Styx River, AK, USA|2019-10-14T00:00:00|2599-12-31T23:59:59
AK|M23K|61.7929|-147.7262|583.0|Glacier View, AK, USA|2020-04-17T00:00:00|2599-12-31T23:59:59
AK|M26K|62.4013|-142.9963|888.0|Nabesna, AK, USA|2019-10-04T00:00:00|2599-12-31T23:59:59
AK|M27K|62.3579|-141.878|1536.0|Edge Creek, AK, USA|2019-10-04T00:00:00|2599-12-31T23:59:59
AK|MCAR|61.383598|-143.024002|447.0|McCarthy VSAT, AK, USA|2013-01-01T00:00:00|2599-12-31T23:59:59
AK|MCK|63.7318|-148.937302|618.0|McKinley Park, AK, USA|1998-08-15T00:00:00|2599-12-31T23:59:59
AK|MDM|64.9602|-148.2319|631.0|Murphy Dome, AK, USA|2008-08-15T00:00:00|2599-12-31T23:59:59
AK|MESA|60.1782|-141.949799|1907.0|Mesa, AK, USA|2018-09-08T00:00:00|2599-12-31T23:59:59
AK|MLY|65.030403|-150.744202|812.0|Manley Hot Springs, AK, USA|2009-08-05T00:00:00|2599-12-31T23:59:59
AK|MS01|61.5802|-149.4946|109.0|Burchell High School, Wasilla, AK, USA|2021-02-26T00:00:00|2599-12-31T23:59:59
AK|MS02|61.5904|-149.7689|74.0|Houston High School, Houston, AK, USA|2021-02-26T00:00:00|2599-12-31T23:59:59
AK|N15K|60.1686|-160.0921|449.0|Kwethluk River, AK, USA|2020-09-23T00:00:00|2599-12-31T23:59:59
AK|N18K|60.6801|-155.8897|572.0|Kilae Creek, AK, USA|2019-10-04T00:00:00|2599-12-31T23:59:59
AK|N19K|60.8132|-154.4838|1144.0|Bonanza Creek NPS repeater, AK, USA|2019-10-04T00:00:00|2599-12-31T23:59:59
AK|NEA2|64.5928|-149.0694|450.0|Nenana, AK, USA|2014-06-12T00:00:00|2599-12-31T23:59:59
AK|NIKI|60.6726|-151.3523|41.0|Nikiski AGDC plant, AK, USA|2021-01-07T00:00:00|2599-12-31T23:59:59
AK|O14K|59.2533|-161.2638|129.0|Tigyukauivet Mountain, AK, USA|2020-09-23T00:00:00|2599-12-31T23:59:59
AK|O18K|59.8542|-155.208|544.0|Koktuh Hills, AK, USA|2019-08-27T00:00:00|2599-12-31T23:59:59
AK|O19K|60.1952|-154.3201|96.0|Port Alsworth, AK, USA|2019-11-13T00:00:00|2599-12-31T23:59:59
AK|O20K|60.0815|-152.624|915.0|Slope Mountain, AK, USA|2019-12-19T00:00:00|2599-12-31T23:59:59
AK|P08K|56.6011|-169.5484|36.0|Saint George Island, AK, USA|2019-11-13T00:00:00|2599-12-31T23:59:59
AK|P16K|59.0314|-157.9906|85.9|Nushagak River, AK, USA|2019-12-02T00:00:00|2599-12-31T23:59:59
AK|P17K|59.1953|-156.4394|91.0|Kvichak River, AK, USA|2019-12-02T00:00:00|2599-12-31T23:59:59
AK|P23K|59.9979|-147.4031|287.0|Montague Island, AK, USA|2019-08-27T00:00:00|2599-12-31T23:59:59
AK|PAX|62.969898|-145.469894|1150.0|Paxson, AK, USA|2003-10-06T00:00:00|2599-12-31T23:59:59
AK|PIN|60.095901|-140.252502|975.0|Pinnacle, AK, USA|2003-05-28T00:00:00|2599-12-31T23:59:59
AK|PNL|59.667|-139.401398|586.0|Peninsula, AK, USA|2001-08-16T00:00:00|2599-12-31T23:59:59
AK|POKR|65.1171|-147.4335|501.0|Poker Flat Research Range, AK, USA|2020-02-12T00:00:00|2599-12-31T23:59:59
AK|PPD|65.517403|-145.524597|1505.0|Porcupine Dome, AK, USA|2011-09-05T00:00:00|2599-12-31T23:59:59
AK|PPLA|62.896198|-152.189407|1519.0|Purkeypile, AK, USA|2002-12-11T00:00:00|2599-12-31T23:59:59
AK|PS01|70.258|-148.6141|9.0|TAPS Pump Station 1, AK, USA|2020-06-01T00:00:00|2599-12-31T23:59:59
AK|PS04|68.4215|-149.3568|849.0|TAPS Pump Station 4, AK, USA|2020-06-01T00:00:00|2599-12-31T23:59:59
AK|PS05|66.8133|-150.6646|327.0|TAPS Pump Station 5, AK, USA|2020-06-01T00:00:00|2599-12-31T23:59:59
AK|PS06|65.8545|-149.7369|280.0|TAPS Pump Station 6, AK, USA|2020-06-01T00:00:00|2599-12-31T23:59:59
AK|PS07|65.3106|-148.2791|289.0|TAPS Pump Station 7, AK, USA|2020-06-01T00:00:00|2599-12-31T23:59:59
AK|PS08|64.5422|-146.8221|320.0|TAPS Pump Station 8, AK, USA|2020-06-01T00:00:00|2599-12-31T23:59:59
AK|PS09|63.9299|-145.7682|468.0|TAPS Pump Station 9, AK, USA|2020-06-01T00:00:00|2599-12-31T23:59:59
AK|PS10|63.4229|-145.7684|738.0|TAPS Pump Station 10, AK, USA|2020-06-01T00:00:00|2599-12-31T23:59:59
AK|PS11|62.0789|-145.4751|375.0|TAPS Pump Station 11, AK, USA|2020-06-01T00:00:00|2599-12-31T23:59:59
AK|PS12|61.4749|-145.1458|562.7|TAPS Pump Station 12, AK, USA|2020-06-01T00:00:00|2599-12-31T23:59:59
AK|PTPK|61.187099|-142.467194|1892.6|Patty Peak Repeater, AK, USA|2013-01-01T00:00:00|2599-12-31T23:59:59
AK|PWL|60.858398|-148.333405|550.0|Port Wells, AK, USA|2010-09-13T00:00:00|2599-12-31T23:59:59
AK|Q19K|58.9287|-153.6446|631.0|Cape Douglas, AK, USA|2019-10-29T00:00:00|2599-12-31T23:59:59
AK|Q23K|59.4296|-146.3399|46.0|Middleton Island, AK, USA|2019-09-24T00:00:00|2599-12-31T23:59:59
AK|R16K|57.5673|-157.5742|38.0|Pilot Point, AK, USA|2019-11-27T00:00:00|2599-12-31T23:59:59
AK|R32K|58.2747|-134.5181|386.0|Eaglecrest, AK, USA|2019-12-11T00:00:00|2599-12-31T23:59:59
AK|RAG|60.3863|-144.6773|752.0|Ragged Mountain, AK, USA|2006-06-16T00:00:00|2599-12-31T23:59:59
AK|RC01|61.088902|-149.738998|390.0|Rabbit Creek, AK, USA|1998-08-07T00:00:00|2599-12-31T23:59:59
AK|RDOG|68.0541|-162.908005|423.0|Red Dog Mine, AK, USA|2009-06-20T00:00:00|2599-12-31T23:59:59
AK|RIDG|63.7399|-144.8462|871.0|Independent Ridge, AK, USA|2007-07-01T00:00:00|2599-12-31T23:59:59
AK|RKAV|60.2994|-141.347794|1647.0|Rock Avalanche, AK, USA|2013-01-01T00:00:00|2599-12-31T23:59:59
AK|RND|63.405602|-148.860199|993.6|Reindeer, AK, USA|2008-06-15T00:00:00|2599-12-31T23:59:59
AK|S15K|56.3058|-158.54|17.0|Chignik Lagoon, AK, USA|2020-02-13T00:00:00|2599-12-31T23:59:59
AK|S19K|57.2225|-153.2875|47.0|Old Harbor, AK, USA|2020-02-18T00:00:00|2599-12-31T23:59:59
AK|S31K|57.9616|-136.232|34.0|Pelican, AK, USA|2019-10-16T00:00:00|2599-12-31T23:59:59
AK|S32K|57.4688|-134.5763|26.0|Killisnoo, AK, USA|2019-08-27T00:00:00|2599-12-31T23:59:59
AK|SAMH|60.129398|-140.782806|1140.0|Samovar Hills, AK, USA|2013-01-01T00:00:00|2599-12-31T23:59:59
AK|SAW|61.806999|-148.331604|781.0|Sawmill, AK, USA|1999-11-07T00:00:00|2599-12-31T23:59:59
AK|SCM|61.832001|-147.328995|1050.0|Sheep Mountain, AK, USA|2009-06-28T00:00:00|2599-12-31T23:59:59
AK|SCRK|63.976101|-143.990494|1375.0|Sand Creek, AK, USA|2007-07-01T00:00:00|2599-12-31T23:59:59
AK|SII|56.5593|-154.1842|492.0|Sitkinak Island Coast Guard, AK, USA|2007-08-29T00:00:00|2599-12-31T23:59:59
AK|SKN|61.98|-151.5317|581.0|Skwentna, AK, USA|2006-05-15T00:00:00|2599-12-31T23:59:59
AK|SPIA|57.176601|-170.247803|71.0|St Paul Island, AK, USA|2000-09-19T00:00:00|2599-12-31T23:59:59
AK|SSN|61.4636|-150.746704|1306.0|Susitna, AK, USA|2008-08-15T00:00:00|2599-12-31T23:59:59
AK|SUCK|60.071999|-143.779007|467.0|Suckling Hills, AK, USA|2013-01-01T00:00:00|2599-12-31T23:59:59
AK|TGL|60.754101|-142.829193|1266.4|Tana Glacier, AK, USA|2010-06-19T00:00:00|2599-12-31T23:59:59
AK|TNA|65.559799|-167.926697|74.0|Tin City, AK, USA|1998-10-24T00:00:00|2599-12-31T23:59:59
AK|TOLK|68.6408|-149.5724|760.0|Toolik Lake Research Station, AK, USA|2020-02-15T00:00:00|2599-12-31T23:59:59
AK|TRF|63.4501|-150.2892|1709.9|Thorofare Mountian, AK, USA|2016-09-01T00:00:00|2599-12-31T23:59:59
AK|U33K|56.1146|-133.121|11.0|Whale Pass, AK, USA|2019-10-17T00:00:00|2599-12-31T23:59:59
AK|UNV|53.8452|-166.504501|65.0|Unalaska Valley, AK, USA|1999-02-19T00:00:00|2599-12-31T23:59:59
AK|V35K|55.3279|-131.615|64.0|Ketchikan, AK, USA|2019-10-17T00:00:00|2599-12-31T23:59:59
AK|VMT|61.083|-146.368|97.0|Valdez Marine Terminal, AK, USA|2020-06-01T00:00:00|2599-12-31T23:59:59
AK|VRDI|61.227501|-143.454498|1909.4|Verde Repeater, AK, USA|2013-01-01T00:00:00|2599-12-31T23:59:59
AK|WAT1|62.829498|-148.550903|722.0|Susitna Watana 1, AK, USA|2012-08-12T00:00:00|2599-12-31T23:59:59
AK|WAT6|62.580799|-147.740005|1681.0|Susitna Watana 6, AK, USA|2013-08-01T00:00:00|2599-12-31T23:59:59
AK|WAT7|62.833099|-148.847595|1232.0|Susitna Watana 7, AK, USA|2013-08-01T00:00:00|2599-12-31T23:59:59
AK|WRH|64.4716|-148.0918|329.0|Wood River Hill, AK, USA|2009-06-30T00:00:00|2599-12-31T23:59:59
AK|YAH|60.358299|-141.751007|2125.0|Yahtse, AK, USA|2011-08-18T00:00:00|2599-12-31T23:59:59
AP|PVFF|33.39|-112.86|260.0|Palo Verde NPP, AZ, USA|2015-12-10T00:00:00|2599-12-31T23:59:59
AR|CCAZ|35.65163|-112.298416|1724.0|Cataract Creek, AZ, USA|2000-01-01T00:00:00|2599-12-31T23:59:59
AR|FLAG|35.167198|-111.6437|2120.0|Flagstaff, AZ, USA|2000-01-01T00:00:00|2599-12-31T23:59:59
AR|GCAZ|36.058537|-112.183601|2072.0|Grand Canyon, AZ, USA|2013-06-30T00:00:00|2599-12-31T23:59:59
AR|PGAZ|36.905998|-111.461998|2418.0|Page, AZ, USA|2000-01-01T00:00:00|2599-12-31T23:59:59
AR|SMAZ|36.321419|-113.168953|2200.0|Slide Mountain, AZ, USA|2013-06-30T00:00:00|2599-12-31T23:59:59
AR|TSAZ|35.270111|-112.232933|2313.1|Three Sisters, AZ, USA|2013-06-30T00:00:00|2599-12-31T23:59:59
AR|WMZ|35.157295|-112.326393|2037.0|Williams, AZ, USA|2000-01-01T00:00:00|2599-12-31T23:59:59
AT|AKUT|54.13517|-165.771851|19.2|Akutan, Alaska|2004-11-17T00:00:00|2599-12-31T23:59:59
AT|CHGN|56.301399|-158.414154|17.0|Chignik, Alaska|2011-08-10T00:00:00|2599-12-31T23:59:59
AT|CRAG|55.468941|-133.122971|57.9|Craig, Alaska|2004-12-10T00:00:00|2599-12-31T23:59:59
AT|MENT|62.938049|-143.719421|702.0|Mentasta, Alaska|2010-12-02T00:00:00|2599-12-31T23:59:59
AT|OHAK|57.2225|-153.287506|77.5|Old Harbor, Alaska|2006-06-23T00:00:00|2599-12-31T23:59:59
AT|PMR|61.592201|-149.130798|100.0|Palmer, Alaska|1999-08-11T00:00:00|2599-12-31T23:59:59
AT|SDPT|55.3493|-160.476593|74.0|Sand Point, Alaska|2002-08-28T00:00:00|2599-12-31T23:59:59
AT|SIT|57.0569|-135.324402|19.0|Sitka, Alaska|1999-08-11T00:00:00|2599-12-31T23:59:59
AT|SKAG|59.460098|-135.328964|134.0|Skagway, Alaska|2004-10-13T00:00:00|2599-12-31T23:59:59
AT|SMY|52.730801|174.103104|58.0|Shemya, Alaska|2000-02-15T00:00:00|2599-12-31T23:59:59
AT|YKU2|59.5121|-139.671036|10.1|Yakutat, Alaska|2009-08-26T00:00:00|2599-12-31T23:59:59
AU|ARMA|-30.418301|151.629303|1112.0|Armidale, New South Wales|2007-11-19T00:00:00|2599-12-31T23:59:59
AU|ARPS|-36.769901|141.838303|250.0|Mt Arapiles, VIC|2006-01-23T00:00:00|2599-12-31T23:59:59
AU|AS01|-23.6647|133.950806|605.0|Alice Springs Array Element 01|2003-08-13T00:00:00|2599-12-31T23:59:59
AU|AS02|-23.679199|133.936905|649.0|Alice Springs Array Element 02|2003-08-13T00:00:00|2599-12-31T23:59:59
AU|AS03|-23.677401|133.919693|643.3|Alice Springs Array Element 03|2003-08-13T00:00:00|2599-12-31T23:59:59
AU|AS04|-23.6597|133.929199|666.3|Alice Springs Array Element 04|2003-08-13T00:00:00|2599-12-31T23:59:59
AU|AS05|-23.6492|133.947495|683.2|Alice Springs Array Element 05|2003-08-13T00:00:00|2599-12-31T23:59:59
AU|AS06|-23.647499|133.971405|663.2|Alice Springs Array Element 06|2003-08-13T00:00:00|2599-12-31T23:59:59
AU|AS07|-23.6656|133.969696|613.7|Alice Springs Array Element 07|2003-08-13T00:00:00|2599-12-31T23:59:59
AU|AS08|-23.6814|133.960007|594.3|Alice Springs Array Element 08|2003-08-13T00:00:00|2599-12-31T23:59:59
AU|AS09|-23.6994|133.941406|591.2|Alice Springs Array Element 09|2003-08-13T00:00:00|2599-12-31T23:59:59
AU|AS10|-23.696899|133.913895|607.4|Alice Springs Array Element 10|2003-08-13T00:00:00|2599-12-31T23:59:59
AU|AS11|-23.678301|133.897797|608.3|Alice Springs Array Element 11|2003-08-13T00:00:00|2599-12-31T23:59:59
AU|AS12|-23.666401|133.904404|607.4|Alice Springs Array Element 12|2003-08-13T00:00:00|2599-12-31T23:59:59
AU|AS13|-23.651899|133.894394|603.9|Alice Springs Array Element 13|2003-08-13T00:00:00|2599-12-31T23:59:59
AU|AS14|-23.651699|133.910294|619.6|Alice Springs Array Element 14|2003-08-13T00:00:00|2599-12-31T23:59:59
AU|AS15|-23.635599|133.912201|668.7|Alice Springs Array Element 15|2003-08-13T00:00:00|2599-12-31T23:59:59
AU|AS16|-23.6369|133.929993|675.8|Alice Springs Array Element 16|2003-08-13T00:00:00|2599-12-31T23:59:59
AU|AS17|-23.6644|133.991699|614.6|Alice Springs Array Element 17|2003-08-13T00:00:00|2599-12-31T23:59:59
AU|AS18|-23.690001|133.980804|591.7|Alice Springs Array Element 18|2003-08-13T00:00:00|2599-12-31T23:59:59
AU|AS19|-23.704399|133.962494|576.7|Alice Springs Array Element 19|2003-08-13T00:00:00|2599-12-31T23:59:59
AU|AS31|-23.666|133.904007|607.0|Alice Springs Array Element 31 BroadBand|2005-06-21T00:00:00|2599-12-31T23:59:59
AU|AXCOZ|-22.9608|145.251099|226.0|Aramac airstrip, QLD|2018-11-30T00:00:00|2599-12-31T23:59:59
AU|BBOO|-32.8102|136.058807|321.0|Buckleboo, South Australia|2008-11-24T00:00:00|2599-12-31T23:59:59
AU|BCON|-30.33585|117.7649|386.0|Beacon, Western Australia|2020-05-28T00:00:00|2599-12-31T23:59:59
AU|BN2S|-27.3293|153.047699|8.0|Brisbande 2 Soft JUMP, Queensland|2009-01-01T00:00:00|2599-12-31T23:59:59
AU|BRAT|-37.548901|143.932999|503.0|Ballarat JUMP, Victoria|2013-03-22T00:00:00|2599-12-31T23:59:59
AU|BW1H|-20.004499|148.236099|63.0|Bowen Hard JUMP, Queensland|2012-08-01T00:00:00|2599-12-31T23:59:59
AU|BW2S|-19.9984|148.223206|7.0|BOWEN SOFT JUMP QUEENSLAND|2012-08-02T00:00:00|2599-12-31T23:59:59
AU|CMSA|-31.5375|145.691605|220.0|Cobar, New South Wales|2001-06-26T00:00:00|2599-12-31T23:59:59
AU|CN1H|-16.910999|145.710602|149.0|Cairns 1 Hard JUMP, Queensland|2012-01-01T00:00:00|2599-12-31T23:59:59
AU|CN2S|-17.0215|145.723801|56.0|Cairns 2 Soft JUMP, Queensland|2012-01-01T00:00:00|2599-12-31T23:59:59
AU|CNB|-35.314999|149.363297|853.0|Canberra, Kowen Forest|2020-06-24T01:00:00|2599-12-31T23:59:59
AU|COEN|-13.9574|143.174896|285.4|Coen, Queensland|2008-01-23T00:00:00|2599-12-31T23:59:59
AU|CORO|-41.452202|147.145004|0.0|Coronation Park JUMP, Tasmania|2009-11-20T00:00:00|2599-12-31T23:59:59
AU|CTA|-20.0876|146.25|426.0|Charters Towers, Queensland|1994-10-20T00:00:00|2599-12-31T23:59:59
AU|CVQOZ|-24.4457|114.078003|37.0|Cooralya Station, Carnarvon, WA|2019-03-13T00:00:00|2599-12-31T23:59:59
AU|DLN|-34.723301|149.178894|565.0|Dalton JUMP, New South Wales|2013-02-01T00:00:00|2599-12-31T23:59:59
AU|DNDOZ|-32.460899|123.867996|153.0|Balladonia, WA|2019-02-28T00:00:00|2599-12-31T23:59:59
AU|DPH|-12.4667|130.8423|45.0|Darwin Parliament House JUMP, Northern Territory|2009-01-01T00:00:00|2599-12-31T23:59:59
AU|DRS|-12.4313|130.899307|44.0|Darwin Rock Store JUMP, Northern Territory|2009-01-01T00:00:00|2599-12-31T23:59:59
AU|EIDS|-25.369101|151.081696|216.0|Eidsvold, Queensland|2003-06-23T00:00:00|2599-12-31T23:59:59
AU|FITZ|-18.0982|125.640297|110.0|Fitzroy Crossing|1994-08-31T00:00:00|2599-12-31T23:59:59
AU|FORT|-30.779|128.059|165.0|Forrest, WA|1994-01-01T00:00:00|2599-12-31T23:59:59
AU|GC1S|-28.161699|153.511505|11.0|Gold Coast 1 Soft Rock JUMP, QLD|2009-01-01T00:00:00|2599-12-31T23:59:59
AU|GC2F|-27.912201|153.395798|12.0|Gold Coast 2 Fill JUMP, Queensland|2009-01-01T00:00:00|2599-12-31T23:59:59
AU|GD1S|-23.8421|151.169006|5.0|Gladstone 1 Soft Rock JUMP, QLD|2011-10-10T00:00:00|2599-12-31T23:59:59
AU|GEXS|-38.200802|144.289993|10.0|Deakin UNI JUMP, GEELONG Victoria|2013-03-26T00:00:00|2599-12-31T23:59:59
AU|GHSS|-34.919399|138.6017|42.0|Government House JUMP, SA|2009-01-01T00:00:00|2599-12-31T23:59:59
AU|GIRL|-22.643|114.234001|111.0|Giralia, WA|1995-09-04T00:00:00|2599-12-31T23:59:59
AU|GLAD|-40.982498|148.009995|0.0|Gladstone JUMP, Tasmania|2009-11-20T00:00:00|2599-12-31T23:59:59
AU|GVL|-37.621399|144.899002|185.0|Greenvale Resevoir, JUMP Victoria|2013-03-05T00:00:00|2599-12-31T23:59:59
AU|H01W1|-34.892899|114.1539|-1063.0|Cape Leeuwin Hydroacoustic Site W1, Augusta, WA, Australia|2001-08-28T00:00:00|2599-12-31T23:59:59
AU|H01W2|-34.897079|114.134033|-1046.0|Cape Leeuwin Hydroacoustic Site W2, Augusta, WA, Australia|2004-06-02T00:00:00|2599-12-31T23:59:59
AU|H01W3|-34.880932|114.139977|-1056.0|Cape Leeuwin Hydroacoustic Site W3, Augusta, WA, Australia|2004-06-02T00:00:00|2599-12-31T23:59:59
AU|HTT|-33.4306|138.9217|708.0|Hallett, South Australia|2009-07-01T00:00:00|2599-12-31T23:59:59
AU|I03H1|-68.583931|78.068504|640.0|Davis Base, Site H1, Antarctica|2018-09-06T00:00:00|2599-12-31T23:59:59
AU|I03H2|-68.586571|78.072044|680.0|Davis Base, Site H2, Antarctica|2018-09-06T00:00:00|2599-12-31T23:59:59
AU|I03H3|-68.588661|78.071152|664.0|Davis Base, Site H3, Antarctica|2018-09-06T00:00:00|2599-12-31T23:59:59
AU|I03H4|-68.587509|78.062332|629.0|Davis Base, Site H4, Antarctica|2018-09-06T00:00:00|2599-12-31T23:59:59
AU|I03H5|-68.580765|78.081757|740.0|Davis Base, Site H5, Antarctica|2018-09-06T00:00:00|2599-12-31T23:59:59
AU|I03H6|-68.592712|78.072746|816.0|Davis Base, Site H6, Antarctica|2018-09-06T00:00:00|2599-12-31T23:59:59
AU|I03H7|-68.585075|78.04937|847.0|Davis Base, Site H7, Antarctica|2018-09-06T00:00:00|2599-12-31T23:59:59
AU|I04H1|-34.59761|116.356689|167.1|Narrogin Infrasound Array, Site H1, Australia|2006-02-01T00:00:00|2599-12-31T23:59:59
AU|I04H2|-34.596169|116.367142|155.7|Narrogin Infrasound Array, Site H2, Australia|2006-02-01T00:00:00|2599-12-31T23:59:59
AU|I04H3|-34.607571|116.351547|123.2|Narrogin Infrasound Array, Site H3, Australia|2006-02-01T00:00:00|2599-12-31T23:59:59
AU|I04H4|-34.594002|116.344582|154.7|Narrogin Infrasound Array, Site H4, Australia|2006-02-01T00:00:00|2599-12-31T23:59:59
AU|I04H5|-34.594711|116.341087|147.7|Narrogin Infrasound Array, Site H5, Australia|2006-02-01T00:00:00|2599-12-31T23:59:59
AU|I04H6|-34.593121|116.341042|146.8|Narrogin Infrasound Array, Site H6, Australia|2006-02-01T00:00:00|2599-12-31T23:59:59
AU|I04H7|-34.591122|116.343163|143.2|Narrogin Infrasound Array, Site H7, Australia|2006-02-01T00:00:00|2599-12-31T23:59:59
AU|I06H2|-12.14752|96.81855|17.6|Cocos Islands Infrasound Array, Site H2, Australia|2011-10-31T00:00:00|2599-12-31T23:59:59
AU|I06H3|-12.14509|96.817741|20.8|Cocos Islands Infrasound Array, Site H3, Australia|2011-10-31T00:00:00|2599-12-31T23:59:59
AU|I06H4|-12.14354|96.818489|16.0|Cocos Islands Infrasound Array, Site H4, Australia|2011-10-31T00:00:00|2599-12-31T23:59:59
AU|I06H5|-12.1447|96.820847|19.3|Cocos Islands Infrasound Array, Site H5, Australia|2011-10-31T00:00:00|2599-12-31T23:59:59
AU|I06H6|-12.14585|96.82428|29.2|Cocos Islands Infrasound Array, Site H6, Australia|2011-10-31T00:00:00|2599-12-31T23:59:59
AU|I06H7|-12.15422|96.826881|14.0|Cocos Islands Infrasound Array, Site H7, Australia|2011-10-31T00:00:00|2599-12-31T23:59:59
AU|I06H8|-12.15724|96.821693|11.9|Cocos Islands Infrasound Array, Site H8, Australia|2011-10-31T00:00:00|2599-12-31T23:59:59
AU|I07H1|-19.934851|134.329544|385.5|Warramunga Infrasonic Array, Site I07H1, Australia|2000-05-12T00:00:00|2599-12-31T23:59:59
AU|I07H2|-19.933411|134.330933|387.6|Warramunga Infrasonic Array, Site I07H2, Australia|2000-05-12T00:00:00|2599-12-31T23:59:59
AU|I07H3|-19.93659|134.330734|392.0|Warramunga Infrasonic Array, Site I07H3, Australia|2000-05-12T00:00:00|2599-12-31T23:59:59
AU|I07H4|-19.93502|134.327698|383.0|Warramunga Infrasonic Array, Site I07H4, Australia|2000-05-12T00:00:00|2599-12-31T23:59:59
AU|I07H5|-19.924549|134.32579|387.3|Warramunga Infrasonic Array, Site I07H5, Australia|2013-05-23T00:00:00|2599-12-31T23:59:59
AU|I07H6|-19.932699|134.338852|387.5|Warramunga Infrasonic Array, Site I07H6, Australia|2013-05-23T00:00:00|2599-12-31T23:59:59
AU|I07H7|-19.94022|134.33963|387.7|Warramunga Infrasonic Array, Site I07H7, Australia|2013-05-23T00:00:00|2599-12-31T23:59:59
AU|I07H8|-19.943291|134.322906|388.4|Warramunga Infrasonic Array, Site I07H8, Australia|2013-05-23T00:00:00|2599-12-31T23:59:59
AU|INKA|-27.740999|140.745605|112.0|Innamincka, South Australia|2013-06-21T00:00:00|2599-12-31T23:59:59
AU|KDU|-12.6869|132.472702|46.0|Kakadu, NT|2008-11-27T00:00:00|2599-12-31T23:59:59
AU|KELC|-35.979099|136.907806|60.0|Kangaroo Island|2018-06-11T00:00:00|2599-12-31T23:59:59
AU|KMBL|-31.3669|121.8821|370.0|Kambalda, WA|2000-11-27T00:00:00|2599-12-31T23:59:59
AU|KNRA|-15.6769|128.762802|126.0|Kunnunarra, WA|2008-08-21T00:00:00|2599-12-31T23:59:59
AU|KORDA|-30.87687|117.50301|306.0|KORDA- Koorda, Western Australia|2020-05-28T00:00:00|2599-12-31T23:59:59
AU|LCRK|-30.447201|138.216202|207.0|Leigh Creek,South Australia|2013-06-16T00:00:00|2599-12-31T23:59:59
AU|LHI|-31.52|159.061295|73.7|Lord Howe Island|2007-07-08T00:00:00|2599-12-31T23:59:59
AU|MABG|-34.0721|150.7601|132.0|Mount Annan Botanical Gardens|2016-08-17T00:00:00|2599-12-31T23:59:59
AU|MANU|-2.0432|147.366196|141.5|Manus Island, Papua New Guinea|2009-05-26T00:00:00|2599-12-31T23:59:59
AU|MAW|-67.603996|62.870998|12.0|Mawson, Antarctica|2003-01-31T00:00:00|2599-12-31T23:59:59
AU|MCQ|-54.4986|158.9561|14.0|Macquarie Island|2004-06-28T00:00:00|2599-12-31T23:59:59
AU|MEEK|-26.638|118.614998|530.0|Meekatharra, Western Australia|2003-06-25T00:00:00|2599-12-31T23:59:59
AU|MGBR|-37.726299|140.5728|186.0|Mount Gambier SA|2018-06-12T00:00:00|2599-12-31T23:59:59
AU|MILA|-37.0547|149.155|785.0|Mila, NSW|2006-04-11T00:00:00|2599-12-31T23:59:59
AU|MOO|-42.4417|147.190308|325.0|Moorlands, Tasmania|2005-05-13T00:00:00|2599-12-31T23:59:59
AU|MORW|-29.0679|116.040298|296.0|Morawa, Western Australia|2008-04-28T00:00:00|2599-12-31T23:59:59
AU|MTN|-12.8436|131.132706|137.4|Manton Dam, Darwin NT|2006-08-20T00:00:00|2599-12-31T23:59:59
AU|MTSU|-18.148199|144.319504|460.0|Mount Surprise, QLD|2002-11-06T00:00:00|2599-12-31T23:59:59
AU|MUKOZ|-26.7575|114.609398|130.0|Meadow Station, WA|2019-03-13T00:00:00|2599-12-31T23:59:59
AU|MULG|-30.281799|134.058502|254.7|Mulgathing, South Australia|2013-05-28T00:00:00|2599-12-31T23:59:59
AU|NAPP|-33.1828|138.147797|181.0|Napperby JUMP, South Australia|2009-01-01T00:00:00|2599-12-31T23:59:59
AU|NFK|-29.043301|167.938904|203.0|Norfolk Island|2008-05-20T00:00:00|2599-12-31T23:59:59
AU|NTLH|-32.8983|151.703003|64.0|Newcastle Hard Rock JUMP, New South Wales|2012-09-25T00:00:00|2599-12-31T23:59:59
AU|NTLS|-32.931999|151.762497|13.0|Newcastle Soft JUMP, New South Wales|2010-09-10T00:00:00|2599-12-31T23:59:59
AU|NWAO|-32.9277|117.239|265.0|Narrogin, Western Australia|1994-01-01T00:00:00|2599-12-31T23:59:59
AU|OKDL|-34.0707|150.4805|508.0|Oakdale, Sydney, NSW|2017-02-17T00:00:00|2599-12-31T23:59:59
AU|ONGER|-33.86366|118.39563|340.0|Ongerup, WA|2020-06-25T03:42:35|2599-12-31T23:59:59
AU|OOD|-27.794399|135.688004|162.2|Oodnadatta, South Australia|2013-05-24T00:00:00|2599-12-31T23:59:59
AU|PTPS|-33.172501|137.994293|9.0|Port Pirie JUMP, SA|2009-01-01T00:00:00|2599-12-31T23:59:59
AU|QIS|-20.557699|139.605194|450.0|Mount Isa, Qld|2005-02-06T00:00:00|2599-12-31T23:59:59
AU|QLP|-26.5837|144.235001|210.0|Quilpie, QLD|2003-11-13T00:00:00|2599-12-31T23:59:59
AU|RABL|-4.1912|152.163696|277.0|Rabaul, Papua New Guinea|2009-04-26T00:00:00|2599-12-31T23:59:59
AU|RIV|-33.829399|151.158295|25.0|St Ignatius College, Riverview, Sydney|2004-11-09T00:00:00|2599-12-31T23:59:59
AU|RK1H|-23.3876|150.493896|66.0|Rockhampton 1 Hard Rock JUMP, QLD|2009-01-13T00:00:00|2599-12-31T23:59:59
AU|RK2S|-23.3102|150.521606|36.0|Rockhampton 2 Soft Rock JUMP, QLD|2008-12-10T00:00:00|2599-12-31T23:59:59
AU|RMQ|-26.489|148.755005|360.0|Roma, QLD|2004-11-22T21:00:00|2599-12-31T23:59:59
AU|SDAN|-34.507301|139.337997|586.0|Sedan SA|2018-06-11T00:00:00|2599-12-31T23:59:59
AU|STKA|-31.8757|141.596405|230.0|Stephens Creek, NSW|1994-03-29T00:00:00|2599-12-31T23:59:59
AU|SYDH|-33.7619|150.7417|55.0|Sydney Hard JUMP, New South Wales|2010-09-10T00:00:00|2599-12-31T23:59:59
AU|SYDS|-33.9297|151.2243|27.0|Sydney Soft JUMP, NSW|2010-04-30T00:00:00|2599-12-31T23:59:59
AU|TV1H|-19.2614|146.795395|65.0|Townsville 1 Hard JUMP, Queensland|2009-01-01T00:00:00|2599-12-31T23:59:59
AU|TV2S|-19.2904|146.788696|25.0|Townsville 2 Soft JUMP, Queensland|2012-08-01T00:00:00|2599-12-31T23:59:59
AU|TW1H|-27.544201|151.972|730.0|Toowoomba 1 Hard JUMP, Queensland|2009-01-01T00:00:00|2599-12-31T23:59:59
AU|WATNG|-30.7323|118.19845|360.0|Wattoning, WA|2020-06-12T00:00:00|2599-12-31T23:59:59
AU|WB1|-19.959444|134.34642|393.5|Warramunga Array, Australia|1999-07-01T00:00:00|2599-12-31T23:59:59
AU|WB10|-19.767141|134.392838|362.1|Warramunga, NT|2013-08-26T00:00:00|2599-12-31T23:59:59
AU|WB2|-19.942753|134.35112|388.0|Warramunga Array, Australia|1999-07-01T00:00:00|2599-12-31T23:59:59
AU|WB3|-19.923019|134.355453|384.2|Warramunga Array, Australia|1999-07-01T00:00:00|2599-12-31T23:59:59
AU|WB4|-19.903646|134.358932|380.6|Warramunga Array, Australia|1999-07-01T00:00:00|2599-12-31T23:59:59
AU|WB5|-19.878218|134.366196|370.9|Warramunga Array, Australia|1999-07-01T00:00:00|2599-12-31T23:59:59
AU|WC1|-19.924335|134.33905|392.0|Warramunga Array, Australia|1999-07-01T00:00:00|2599-12-31T23:59:59
AU|WC2|-19.925379|134.365448|375.0|Warramunga Array, Australia|1999-07-01T00:00:00|2599-12-31T23:59:59
AU|WC3|-19.958742|134.371933|382.1|Warramunga Array, Australia|1999-07-01T00:00:00|2599-12-31T23:59:59
AU|WC4|-19.961927|134.339737|387.5|Warramunga Array, Australia|1999-07-01T00:00:00|2599-12-31T23:59:59
AU|WOLH|-34.407|150.874|91.0|Woolongong Hard JUMP, NSW|2011-03-23T00:00:00|2599-12-31T23:59:59
AU|WR1|-19.942589|134.339508|388.8|Warramunga Array, Australia|1999-07-01T00:00:00|2599-12-31T23:59:59
AU|WR10|-19.959661|134.540527|353.0|Warramunga, NT|2013-08-26T00:00:00|2599-12-31T23:59:59
AU|WR2|-19.946861|134.362381|385.4|Warramunga Array, Australia|1999-07-01T00:00:00|2599-12-31T23:59:59
AU|WR3|-19.948503|134.386917|376.5|Warramunga Array, Australia|1999-07-01T00:00:00|2599-12-31T23:59:59
AU|WR4|-19.950317|134.406616|374.4|Warramunga Array, Australia|1999-07-01T00:00:00|2599-12-31T23:59:59
AU|WR5|-19.952171|134.430374|364.2|Warramunga Array, Australia|1999-07-01T00:00:00|2599-12-31T23:59:59
AU|WR6|-19.954227|134.453049|356.5|Warramunga Array, Australia|1999-07-01T00:00:00|2599-12-31T23:59:59
AU|WR7|-19.955193|134.476013|354.8|Warramunga Array, Australia|1999-07-01T00:00:00|2599-12-31T23:59:59
AU|WR8|-19.955793|134.500504|367.1|Warramunga Array, Australia|1999-07-01T00:00:00|2599-12-31T23:59:59
AU|WRKA|-25.0375|128.296097|622.0|Warrakurna, Western Australia|2009-04-26T00:00:00|2599-12-31T23:59:59
AU|WTPK|-34.2217|150.6389|199.0|Wilton Park, Sydney, NSW|2016-07-07T00:00:00|2599-12-31T23:59:59
AU|YAPP|-31.866301|138.311905|267.0|Yappala Station, SA|2018-06-23T00:00:00|2599-12-31T23:59:59
AU|YARR|-33.6174|150.6877|19.0|Yarramundi, Sydney, NSW|2016-11-29T00:00:00|2599-12-31T23:59:59
AU|YNG|-34.298|148.3963|460.0|Young, NSW|2004-04-16T00:00:00|2599-12-31T23:59:59
AV|ADAG|51.98|-176.6001|281.0|Mount Adagdak, Regional Station, Alaska|2005-11-01T00:00:00|2599-12-31T23:59:59
AV|ADKI|51.8619|-176.6439|5.0|Adak infrasound array, Adak Island, Alaska|2017-06-23T00:00:00|2599-12-31T23:59:59
AV|AHB|54.1144|-165.8177|447.0|Akutan Harbor, Akutan Volcano, Alaska|2005-11-01T00:00:00|2599-12-31T23:59:59
AV|AKBB|54.0975|-165.9338|310.0|Akutan Broiad Bright, Akutan Volcano, Alaska|2005-11-01T00:00:00|2599-12-31T23:59:59
AV|AKGG|54.1979|-165.9936|326.0|Akutan Green Grass, Akutan Volcano, AK|2005-11-01T00:00:00|2599-12-31T23:59:59
AV|AKHS|54.1533|-165.8868|150.0|Akutan Broiad Bright, Akutan Volcano, Alaska|2018-08-08T00:00:00|2599-12-31T23:59:59
AV|AKLV|54.1618|-165.9576|551.0|Akutan Long Valley, Akutan Volcano, Alaska|2005-11-01T00:00:00|2599-12-31T23:59:59
AV|AKMO|54.0903|-166.0126|277.0|Akutan Morgan, Akutan Volcano, Alaska|2005-11-01T00:00:00|2599-12-31T23:59:59
AV|AKRB|54.1292|-166.0708|334.0|Akutan Reef Bight, Akutan Volcano, Alaska|2005-11-01T00:00:00|2599-12-31T23:59:59
AV|AKS|54.1095|-165.6987|213.0|Akutan Strait, Akutan Volcano, Alaska|2005-11-01T00:00:00|2599-12-31T23:59:59
AV|AKV|54.1253|-165.9647|863.0|Akutan Volcano, Akutan Volcano, Alaska|2005-11-01T00:00:00|2599-12-31T23:59:59
AV|ANNE|56.9119|-158.061|705.0|Aniakchak Northeast, Alaska|2005-11-01T00:00:00|2599-12-31T23:59:59
AV|ANNW|56.9656|-158.217|816.0|Aniakchak Volcano, North West, Alaska|2005-11-01T00:00:00|2599-12-31T23:59:59
AV|ANON|56.919|-158.1737|445.0|Aniakchak Anonymous, Alaska|2005-11-01T00:00:00|2599-12-31T23:59:59
AV|ANPB|56.8016|-158.2829|658.0|Aniakchak Pleny Bear, Alaska|2005-11-01T00:00:00|2599-12-31T23:59:59
AV|ANPK|56.8409|-158.1283|972.0|Aniakchak Peak, Alaska|2005-11-01T00:00:00|2599-12-31T23:59:59
AV|AU22|59.3702|-153.3573|105.0|Augustine Mound, Augustine Volcano, Alaska|2005-11-01T00:00:00|2599-12-31T23:59:59
AV|AUCH|59.3626|-153.4447|916.0|Augustine Cone H, Augustine Volcano, Alaska|2013-08-20T00:00:00|2599-12-31T23:59:59
AV|AUJA|59.3395|-153.4227|376.0|Augustine Junction, Augustine Volcano, Alaska|2013-08-20T00:00:00|2599-12-31T23:59:59
AV|AUJK|59.3493|-153.4106|377.0|Augustine Jurgen Kienle, Cook Inlet, Alaska|2011-08-12T00:00:00|2599-12-31T23:59:59
AV|AUL|59.3816|-153.4379|360.0|Lava Flow, Augustine Volcano, Alaska|2005-11-01T00:00:00|2599-12-31T23:59:59
AV|AULG|59.3773|-153.5193|5.0|Augustine Lagoon, Augustine Island, Alaska|2018-07-02T00:00:00|2599-12-31T23:59:59
AV|AUNO|59.4041|-153.4513|89.0|Augustine North, Augustine Island, Alaska|2018-09-02T00:00:00|2599-12-31T23:59:59
AV|AUSB|59.333|-153.4284|230.0|Augustine South Buttress, Augustine Volcano, Alaska|2015-08-29T00:00:00|2599-12-31T23:59:59
AV|AUW|59.3694|-153.473|276.0|Augustine West, Cook Inlet, Alaska|2005-11-01T00:00:00|2599-12-31T23:59:59
AV|AUWS|59.3585|-153.4608|487.0|Augustine Summit Station, Augustine Volcano, Alaska|2015-06-14T00:00:00|2599-12-31T23:59:59
AV|AZAC|56.8947|-158.2328|1057.0|Aniakchak Zack, Alaska|2005-11-01T00:00:00|2599-12-31T23:59:59
AV|BPBC|56.5889|-158.4547|584.0|Birthday Creek, Veniaminof, Alaska|2005-11-01T00:00:00|2599-12-31T23:59:59
AV|CLCO|52.7866|-169.7229|137.0|Concord Point, Cleveland Volcano, Alaska|2014-08-09T00:00:00|2599-12-31T23:59:59
AV|CLCO1|52.78741|-169.72293|136.0|Concord Point, Cleveland Volcano, Alaska|2014-08-09T00:00:00|2599-12-31T23:59:59
AV|CLCO2|52.78719|-169.72443|125.0|Concord Point, Cleveland Volcano, Alaska|2014-08-09T00:00:00|2599-12-31T23:59:59
AV|CLCO3|52.78746|-169.72102|107.0|Concord Point, Cleveland Volcano, Alaska|2014-08-09T00:00:00|2599-12-31T23:59:59
AV|CLCO4|52.78613|-169.7204|113.0|Concord Point, Cleveland Volcano, Alaska|2014-08-09T00:00:00|2599-12-31T23:59:59
AV|CLCO5|52.78519|-169.72501|113.0|Concord Point, Cleveland Volcano, Alaska|2014-08-09T00:00:00|2599-12-31T23:59:59
AV|CLES|52.8235|-169.8951|146.0|Cleveland East, Cleveland Volcano, Alaska|2014-08-09T00:00:00|2599-12-31T23:59:59
AV|CLES1|52.82352|-169.895192|146.0|Cleveland East, Cleveland Volcano, Alaska|2014-07-25T00:00:00|2599-12-31T23:59:59
AV|DEER|54.97127|-162.32437|392.3|Deer Island, Alaska|2020-08-24T00:00:00|2599-12-31T23:59:59
AV|DLL|59.136028|-158.614235|58.5|Dillingham infrasound array site H1|2010-10-12T00:00:00|2599-12-31T23:59:59
AV|DOL|55.1488|-161.8638|439.0|Dolgoi Island, Mount Dutton, Alaska|2005-11-01T00:00:00|2599-12-31T23:59:59
AV|DT1|55.1062|-162.2801|198.0|Dutton Round Hill, Mount Dutton, Alaska|2005-11-01T00:00:00|2599-12-31T23:59:59
AV|DTN|55.1448|-162.259|396.0|Dutton Volcano, Alaska|2005-11-01T00:00:00|2599-12-31T23:59:59
AV|ETKA|51.8608|-176.4079|290.0|Kagalaska Island, Regional Station, Alaska|2005-11-01T00:00:00|2599-12-31T23:59:59
AV|GSCK|52.0108|-176.164|384.0|Cape Kiugilak, Great Sitkin Volcano, Alaska|2005-11-01T00:00:00|2599-12-31T23:59:59
AV|GSIG|51.9853|-175.927|407.0|Igitkin Island, Great Sitkin Volcano, Alaska|2005-11-01T00:00:00|2599-12-31T23:59:59
AV|GSMY|52.0421|-176.0583|418.0|Middle Yoke Creek, Great Sitkin Volcano, Alaska|2005-11-01T00:00:00|2599-12-31T23:59:59
AV|GSSP|52.0917|-176.1777|295.0|Saddle Point, Great Sitkin Volcano, Alaska|2005-11-01T00:00:00|2599-12-31T23:59:59
AV|GSTR|52.0932|-176.0611|536.0|Teapot Rock, Great Sitkin Volcano, Alaska|2005-11-01T00:00:00|2599-12-31T23:59:59
AV|HAG|55.317|-161.9045|516.0|Hague Volcano, Pavlof Volcano, Alaska|2005-11-01T00:00:00|2599-12-31T23:59:59
AV|ILCB|59.82231|-153.02322|712.0|Iliamna Volcano, Alaska|2020-07-28T00:00:00|2599-12-31T23:59:59
AV|ILLG|60.0689|-152.9606|968.0|Iliamna Volcano, Alaska|2018-09-14T00:00:00|2599-12-31T23:59:59
AV|ILNE|60.0573|-153.06354|1614.0|Iliamna Northeast, Iliamna, Alaska|2016-08-31T00:00:00|2599-12-31T23:59:59
AV|ILS|59.957|-153.0703|1125.0|Iliamna South, Iliamna Volcano, Alaska|2005-11-01T00:00:00|2599-12-31T23:59:59
AV|ILSW|59.9832|-153.1425|1318.0|Iliamna Southwest, Iliamna Volcano, Alaska|2015-08-13T00:00:00|2599-12-31T23:59:59
AV|ILW|60.0592|-153.1392|1646.0|Iliamna West, Iliamna Volcano, Alaska|2005-11-01T00:00:00|2599-12-31T23:59:59
AV|ISLZ|54.7249|-163.7129|634.0|Lazaref River, Shishaldin Volcano, Alaska|2008-08-12T00:00:00|2599-12-31T23:59:59
AV|ISNN|54.8314|-163.7804|466.0|Isanotski North, Isanotski, Alaska|2005-11-01T00:00:00|2599-12-31T23:59:59
AV|IVE|60.0163|-153.0185|1173.0|Iliamna Volcano East, Cook Inlet, Alaska|2005-11-01T00:00:00|2599-12-31T23:59:59
AV|KAB2|58.13116|-154.97616|908.0|Katmai Barrier Ridge Two, Alaska|2020-07-31T00:00:00|2599-12-31T23:59:59
AV|KABU|58.2702|-155.2843|1065.0|KABU - Katmai Volcanic Cluster, Alaska|2005-11-01T00:00:00|2599-12-31T23:59:59
AV|KAHG|58.4933|-154.5484|923.0|Katmai Hook Glacier, Alaska|2005-11-01T00:00:00|2599-12-31T23:59:59
AV|KAKN|58.2963|-155.0632|1049.0|KAKN - Katmai Volcanic Cluster, Alaska|2005-11-01T00:00:00|2599-12-31T23:59:59
AV|KAPH|58.5961|-154.3489|907.0|Katmai Pasha, Alaska|2005-11-01T00:00:00|2599-12-31T23:59:59
AV|KARR|58.4971|-154.7054|610.0|Katmai Rainbow River, Alaska|2005-11-01T00:00:00|2599-12-31T23:59:59
AV|KAVE|58.19782|-155.02341|702.0|Katnai Ventifact, Alaska|2020-08-03T00:00:00|2599-12-31T23:59:59
AV|KAWH|58.383|-154.8013|777.0|Katmai, Alaska|2005-11-01T00:00:00|2599-12-31T23:59:59
AV|KBM|58.2743|-155.2038|732.0|Katmai Baked Mountain, Alaska|2005-11-01T00:00:00|2599-12-31T23:59:59
AV|KCE|58.2426|-155.1854|777.0|Katmai Cerebus, Alaska|2005-11-01T00:00:00|2599-12-31T23:59:59
AV|KCG|58.3069|-155.1135|762.0|Knife Creek Glacier, Katmai, Alaska|2005-11-01T00:00:00|2599-12-31T23:59:59
AV|KEL|58.4393|-155.7428|975.0|Katmai Kelez, Alaska|2005-11-01T00:00:00|2599-12-31T23:59:59
AV|KENI|60.64137|-151.0702|17.0|Kenai infrasound array, Kenai, Alaska|2020-10-01T00:00:00|2599-12-31T23:59:59
AV|KICM|51.9178|-177.1973|183.0|Cape Miga, Kanaga Volcano, Alaska|2005-11-01T00:00:00|2599-12-31T23:59:59
AV|KIKV|51.8777|-177.1724|411.0|Kanaga Volcano, Kanaga Volcano, Alaska|2005-11-01T00:00:00|2599-12-31T23:59:59
AV|KIMD|51.7605|-177.2369|183.0|MID Benchmark, Kanaga Volcano, Alaska|2005-11-01T00:00:00|2599-12-31T23:59:59
AV|KINC|51.9303|-177.1296|198.0|North Cape, Kanaga Volcano, Alaska|2005-11-01T00:00:00|2599-12-31T23:59:59
AV|KIRH|51.89981|-177.0937|321.0|Round Head, Kanaga Volcano, Alaska|2005-11-01T00:00:00|2599-12-31T23:59:59
AV|KIWB|51.852|-177.1528|244.0|Westway Bight, Kanaga Volcano, Alaska|2005-11-01T00:00:00|2599-12-31T23:59:59
AV|KOFP|52.274|-174.0992|662.0|Flat Point, Korovin Volcano, Alaska|2005-11-01T00:00:00|2599-12-31T23:59:59
AV|KOKL|52.3221|-174.2022|758.0|Mount Kliuchef, Korovin Volcano, Alaska|2005-11-01T00:00:00|2599-12-31T23:59:59
AV|KOKV|52.3603|-174.1673|776.0|Korovin Volcano, Korovin Volcano, Alaska|2005-11-01T00:00:00|2599-12-31T23:59:59
AV|KONE|52.3925|-174.1213|253.0|Northeast, Korovin Volcano, Alaska|2005-11-01T00:00:00|2599-12-31T23:59:59
AV|KONW|52.3954|-174.2125|334.0|Northwest, Korovin Volcano, Alaska|2005-11-01T00:00:00|2599-12-31T23:59:59
AV|KOSE|52.3447|-174.0505|625.0|Southeast, Korovin Volcano, Alaska|2005-11-01T00:00:00|2599-12-31T23:59:59
AV|KOWE|52.3646|-174.2527|527.0|West, Korovin Volcano, Alaska|2005-11-01T00:00:00|2599-12-31T23:59:59
AV|KVT|58.381|-155.2971|457.0|Katmai Valley of 10,000 Smokes, Alaska|2005-11-01T00:00:00|2599-12-31T23:59:59
AV|LVA|54.16|-166.0358|457.0|Lava Point, Akutan Volcano, Alaska|2005-11-01T00:00:00|2599-12-31T23:59:59
AV|MAPS|53.8082|-166.9407|333.0|Pakushin Southeast, Makushin Volcano, Alaska|2012-08-02T00:00:00|2599-12-31T23:59:59
AV|MCIR|53.9505|-166.8942|800.0|Makushin Cirque, Makushin Volcano, Alaska|2005-11-01T00:00:00|2599-12-31T23:59:59
AV|MGLS|58.1336|-155.1629|472.0|Mageik Landslide, Katmai, Volcanic Group,  Alaska|2005-11-01T00:00:00|2599-12-31T23:59:59
AV|MGOD|53.7938|-166.878|650.0|Gods Own Repeater Site, Makushin Volcano, Alaska|2005-11-01T00:00:00|2599-12-31T23:59:59
AV|MNAT|53.8829|-166.6856|390.0|Nateekin Bay, Makushin  Volcano, Alaska|2005-11-01T00:00:00|2599-12-31T23:59:59
AV|MSW|53.9148|-166.788|423.0|Switchbacks, Makushin Volcano, Alaska|2005-11-01T00:00:00|2599-12-31T23:59:59
AV|MTBL|53.968|-166.6813|810.0|Table Top, Makushin Volcano, Alaska|2005-11-01T00:00:00|2599-12-31T23:59:59
AV|N20K|61.2001|-152.2089|991.0|Mount Spurr, AK, USA|2020-04-26T00:00:00|2599-12-31T23:59:59
AV|N25K|61.6061|-144.5982|1087.0|Chitina, Valdez-Cordova, AK, USA|2020-04-26T00:00:00|2599-12-31T23:59:59
AV|NCT|60.5621|-152.9293|1136.0|North Crescent, Redoubt Volcano, Alaska|2005-11-01T00:00:00|2599-12-31T23:59:59
AV|OKER|53.4536|-168.0513|956.0|East Rim, Okmok Caldera, Alaska|2005-11-01T00:00:00|2599-12-31T23:59:59
AV|OKFG|53.41078|-167.91141|196.0|Fort Glenn, Okmok Caldera, Alaska|2005-11-01T00:00:00|2599-12-31T23:59:59
AV|OKRE|53.5192|-168.1661|422.0|Reindeer Point, Okmok Caldera, Alaska|2005-11-01T00:00:00|2599-12-31T23:59:59
AV|P19K|59.6524|-153.2319|629.0|Oil Pt, AK, USA|2020-04-26T00:00:00|2599-12-31T23:59:59
AV|PN7A|55.4329|-161.9973|838.0|Pavlof North 7A, Pavlof Volcano, Alaska|2005-11-01T00:00:00|2599-12-31T23:59:59
AV|PS1A|55.4201|-161.7437|283.0|Pavlof South 1A, Pavlof Volcano, Alaska|2005-11-01T00:00:00|2599-12-31T23:59:59
AV|PS4A|55.346|-161.8567|322.0|Pavlof South 4A, Pavlof Volcano, Alaska|2005-11-01T00:00:00|2599-12-31T23:59:59
AV|PV6A|55.507|-161.9714|352.0|Pavlof North 6A, Pavlof, Alaska|2016-07-04T00:00:00|2599-12-31T23:59:59
AV|PVV|55.3732|-161.7919|173.0|Pavlof Volcano, Alaska|2005-11-01T00:00:00|2599-12-31T23:59:59
AV|Q18K|58.6484|-155.0086|1250.0|Katmai Hardscrabble Creek, AK, USA|2020-04-26T00:00:00|2599-12-31T23:59:59
AV|RDDF|60.5912|-152.6883|1134.0|Drift River Broadband, Redoubt Volcano, Alaska|2010-10-11T00:00:00|2599-12-31T23:59:59
AV|RDJH|60.5905|-152.8058|1414.0|Redoubt, Jurgen's Hut, Redoubt Alaska|2009-02-04T00:00:00|2599-12-31T23:59:59
AV|RDSO|60.4536|-152.743|1557.0|Redoubt South, Redoubt Volcano, Alaska|2011-08-29T00:00:00|2599-12-31T23:59:59
AV|RDT|60.5726|-152.4075|930.0|Redoubt, Alaska|2005-11-01T00:00:00|2599-12-31T23:59:59
AV|RDWB|60.4875|-152.8425|1546.0|Redoubt, West Buttress, Redoubt Alaska|2009-02-24T00:00:00|2599-12-31T23:59:59
AV|RED|60.4196|-152.7742|1071.0|Redoubt Volcano, Redoubt Volcano, Alaska|2005-11-01T00:00:00|2599-12-31T23:59:59
AV|REF|60.4888|-152.694|1641.0|Redoubt East Flank, Redoubt Volcano, Alaska|2005-11-01T00:00:00|2599-12-31T23:59:59
AV|SDPI|55.349|-160.4764|80.0|Sand Point infrasound array, Unga Island, Alaska|2016-10-17T00:00:00|2599-12-31T23:59:59
AV|SPBG|61.2591|-152.3722|1087.0|Barrier Glacier, Mount Spurr, Alaska|2005-11-01T00:00:00|2599-12-31T23:59:59
AV|SPCP|61.2655|-152.155|1616.0|Crater Peak Broadband, Mount Spurr, Alaska|2010-10-02T00:00:00|2599-12-31T23:59:59
AV|SPCR|61.2003|-152.2091|984.0|Ckakachatna River, Mount Spurr, Alaska|2005-11-01T00:00:00|2599-12-31T23:59:59
AV|SSBA|54.7718|-164.1265|766.0|Shishaldin Broadband A, Shishldin Volcano, Alaska|2008-07-31T00:00:00|2599-12-31T23:59:59
AV|SSLN|54.8109|-163.9979|637.0|North, Shishaldin Volcano, Alaska|2005-11-01T00:00:00|2599-12-31T23:59:59
AV|TAFP|51.899|-177.9853|440.0|Falls Point, Tanaga Volcano, Alaska|2005-11-01T00:00:00|2599-12-31T23:59:59
AV|TANO|51.9146|-178.1228|269.0|North, Tanaga Volcano, Alaska|2005-11-01T00:00:00|2599-12-31T23:59:59
AV|VNFG|56.2849|-159.5532|1068.0|Fog Glacier, Mount Veniaminof, Alaska|2005-11-01T00:00:00|2599-12-31T23:59:59
AV|VNHG|56.2203|-159.1663|966.0|Harpoon Glacier,Mount Veniaminof,  Alaska|2005-11-01T00:00:00|2599-12-31T23:59:59
AV|VNKR|56.0304|-159.3699|620.0|Kametolook River, Mount Veniaminof, Alaska|2005-11-01T00:00:00|2599-12-31T23:59:59
AV|VNNF|56.2829|-159.3181|1153.0|North Flank, Mount Veniaminof, Alaska|2005-11-01T00:00:00|2599-12-31T23:59:59
AV|VNSG|56.125|-159.0875|761.0|Slim Glacier, Mount Veniaminof, Alaska|2005-11-01T00:00:00|2599-12-31T23:59:59
AV|VNSS|56.2259|-159.4569|1733.0|Summit, Mount Veniaminof, Alaska|2005-11-01T00:00:00|2599-12-31T23:59:59
AV|VNSW|56.0712|-159.5606|716.0|Southwest, Mount Veniaminof, Alaska|2005-11-01T00:00:00|2599-12-31T23:59:59
AV|VNWF|56.1509|-159.5643|1095.0|West Flank, Mount Veniaminof, Alaska|2005-11-01T00:00:00|2599-12-31T23:59:59
AV|WACK|61.9858|-144.3305|2280.0|Chichokna Glacier, Wrangell, Alaska|2005-11-01T00:00:00|2599-12-31T23:59:59
AV|WASW|61.9277|-144.1745|2196.0|Wrangell Southwest, Mount Wrangell, Alaska|2005-11-01T00:00:00|2599-12-31T23:59:59
AV|WAZA|62.0746|-144.1544|2531.0|Wrangell Zanetti, Alaska|2005-11-01T00:00:00|2599-12-31T23:59:59
AV|WEBT|54.5902|-164.755|467.0|Beartrack Creek, Westdahl Peak, Alaska|2008-08-02T00:00:00|2599-12-31T23:59:59
AV|WECS|54.53|-164.7796|639.0|Cape Sarichef, Westdahl Peak, Alaska|2008-08-04T00:00:00|2599-12-31T23:59:59
AV|WESE|54.4723|-164.586|953.0|Southeast, Westdahl Peak, Alaska|2005-11-01T00:00:00|2599-12-31T23:59:59
AV|WESN|54.5761|-164.5804|549.0|South, Westdahl Peak, Alaska|2005-11-01T00:00:00|2599-12-31T23:59:59
AV|WESP|54.4926|-164.7233|937.0|Westdahl Peak, Westdahl Peak, Alaska|2008-07-31T00:00:00|2599-12-31T23:59:59
AV|WHTR|60.77968|-148.72701|20.0|Whittier infrasound array, Whittier, Alaska|2021-02-10T00:00:00|2599-12-31T23:59:59
AV|WTUG|54.8466|-164.3873|636.0|Tungamak, Westdahl Peak, Alaska|2005-11-01T00:00:00|2599-12-31T23:59:59
AV|ZRO|54.0907|-165.98|446.0|Zero, Akutan Volcano, Alaska|2005-11-01T00:00:00|2599-12-31T23:59:59
AY|HINH|19.1637|-72.015602|289.0|Hinche, NA|2014-03-24T00:00:00|2599-12-31T23:59:59
AZ|BSAP|33.260201|-116.322304|160.0|Borrego Springs Airport, CA, USA|2011-08-12T00:00:00|2599-12-31T23:59:59
AZ|BZN|33.491501|-116.667|1301.0|Buzz Northerns Place, Anza, CA, USA|1983-01-20T00:00:00|2599-12-31T23:59:59
AZ|CRY|33.565399|-116.737297|1128.0|Cary Ranch, Anza, CA, USA|1982-10-01T00:00:00|2599-12-31T23:59:59
AZ|FRD|33.494701|-116.602203|1164.0|Ford Ranch, Anza, CA, USA|1982-10-01T00:00:00|2599-12-31T23:59:59
AZ|GARR|33.591801|-116.670799|1442.0|Garrison Ranch, CA, USA|2012-11-01T00:00:00|2599-12-31T23:59:59
AZ|HSSP|33.584702|-116.664101|1388.0|Hill Street, Anza, CA, USA|2012-10-31T00:00:00|2599-12-31T23:59:59
AZ|KNW|33.7141|-116.7119|1507.0|Keenwild Fire Station, Mountain Center, CA, USA|1982-10-01T00:00:00|2599-12-31T23:59:59
AZ|LVA2|33.351601|-116.561501|1435.0|Lost Valley Scout Camp, CA, USA|1993-04-18T00:00:00|2599-12-31T23:59:59
AZ|PFO|33.611698|-116.459396|1259.0|Pinyon Flats Observatory, CA, USA|1982-10-01T00:00:00|2599-12-31T23:59:59
AZ|RDM|33.630001|-116.847801|1365.0|Red Mountain, Riverside Co, CA, USA|1982-10-01T00:00:00|2599-12-31T23:59:59
AZ|RRSP|33.651501|-116.739403|1610.0|Rouse Ridge, CA, USA|2013-01-24T00:00:00|2599-12-31T23:59:59
AZ|SETM|33.5097|-116.5615|1216.0|South East Table Mountain, Anza, CA, USA|2011-02-25T00:00:00|2599-12-31T23:59:59
AZ|SGBF|33.536499|-116.592903|1463.0|SGBF, CA, USA|2017-11-20T00:00:00|2599-12-31T23:59:59
AZ|SIO5|32.840698|-117.249702|217.0|Mt. Soledad, La Jolla, CA|2017-05-23T00:00:00|2599-12-31T23:59:59
AZ|SMER|33.457699|-117.170799|355.7|Santa Margarita Ecological Reserve, CA, USA|2002-02-09T00:00:00|2599-12-31T23:59:59
AZ|SND|33.551899|-116.6129|1358.0|Jim Saunders Place, Anza, CA, USA|1982-10-01T00:00:00|2599-12-31T23:59:59
AZ|TONN|33.1442|-116.1193|53.6|Tonner Ranch, Anza, CA, USA|2011-03-04T00:00:00|2599-12-31T23:59:59
AZ|TRAN|33.4955|-116.5834|1197.0|Tranquility, Anza, CA, USA|2011-03-06T00:00:00|2599-12-31T23:59:59
AZ|TRO|33.5234|-116.4257|2628.0|Toro Peak, Riverside Co, CA, USA|1982-10-01T00:00:00|2599-12-31T23:59:59
AZ|TUBB|33.210098|-116.409103|394.0|Tubb Canyon, CA, USA|2011-01-21T00:00:00|2599-12-31T23:59:59
AZ|USGCB|33.03|-116.0853|163.0|US Gypsum Company, site B (borehole), CA, USA|2011-08-11T00:00:00|2599-12-31T23:59:59
BC|CBX|32.3131|-116.6636|1250.0|CERRO BOLA MEX|2002-02-22T18:00:00|2599-12-31T23:59:59
BC|CCX|31.867887|-116.664459|36.6|CICESE CCX|2011-06-16T00:00:00|2599-12-31T23:59:59
BC|CPX|32.4195|-115.305|192.0|CERRO PRIETO|2009-10-30T20:00:00|2599-12-31T23:59:59
BC|GUVIX|32.302898|-115.075996|10.0|Guadalupe Victoria|2014-06-13T00:00:00|2599-12-31T23:59:59
BC|PIX|31.562901|-113.4599|77.8|Pinacate|2011-07-15T00:00:00|2599-12-31T23:59:59
BC|RMX|32.5535|-116.0288|1278.0|Rumorosa|2011-10-11T00:00:00|2599-12-31T23:59:59
BC|SFX|31.0376|-114.851|39.0|San Felipe|2012-07-04T00:00:00|2599-12-31T23:59:59
BC|SJX|32.004799|-115.947998|1616.0|Sierra de Juarez|2012-03-20T00:00:00|2599-12-31T23:59:59
BC|SLRCX|32.457901|-114.704903|47.0|San Luis Rio Colorado|2015-06-05T23:46:32|2599-12-31T23:59:59
BC|TJX|32.51017|-117.054298|210.0|Tijuana|2011-08-08T00:00:00|2599-12-31T23:59:59
BC|TKX|32.5687|-116.6075|541.0|Tecate|2011-10-11T00:00:00|2599-12-31T23:59:59
BC|UABX|32.6316|-115.4447|44.3|UABC Campus Mexicali|2011-06-30T00:00:00|2599-12-31T23:59:59
BC|VTX|31.391399|-115.783997|746.0|Valle de la Trinidad|2011-11-09T00:00:00|2599-12-31T23:59:59
BE|MEM|50.6092|6.0067|250.0|Membach, Belgium|2006-01-01T00:00:00|2599-12-31T23:59:59
BE|RCHB|50.155156|5.226787|225.0|Rochefort, Belgium|2008-06-03T00:00:00|2599-12-31T23:59:59
BE|UCC|50.797241|4.36038|100.0|Uccle, Brussels, Belgium|2018-10-29T09:00:00|2599-12-31T23:59:59
BK|CMB|38.03455|-120.38651|697.0|Columbia College, Columbia, CA, USA|1996-09-25T19:19:00|2599-12-31T23:59:59
BK|MCCM|38.14478|-122.88018|-7.7|Marconi Conference Center, Marshall, CA, USA|2006-02-03T18:30:00|2599-12-31T23:59:59
BK|SAO|36.76403|-121.44722|317.2|San Andreas Geophysical Obs., Hollister, CA, USA|1988-01-28T00:00:00|2599-12-31T23:59:59
BL|PMNB|-18.540001|-46.439999|950.0|Patos de Minas, MG|2010-10-22T16:00:00|2599-12-31T23:59:59
BL|VABB|-23.0021|-46.965698|866.0|Valinhos, SP|2010-04-05T00:00:00|2599-12-31T23:59:59
BV|SOEP|-16.238|-68.485|4105.0|Titikaka-Bolivia|2021-01-25T19:30:10|2599-12-31T23:59:59
BX|BROLN|-21.09967|27.33424|1047.0|Borolong|2018-02-17T00:00:00|2599-12-31T23:59:59
BX|GMARE|-19.389299|22.162458|985.0|Gumare|2018-02-17T00:00:00|2599-12-31T23:59:59
BX|GRTLG|-21.36191|21.215712|1198.0|Groot Laagt|2018-02-17T00:00:00|2599-12-31T23:59:59
BX|KDWAN|-23.38039|24.660793|1038.0|Kaudwane|2018-02-17T00:00:00|2599-12-31T23:59:59
BX|KGCAE|-22.853821|22.206787|1153.0|Kacgae|2018-02-17T00:00:00|2599-12-31T23:59:59
BX|KHWEE|-21.9464|25.446911|1083.0|Khwee|2018-02-17T00:00:00|2599-12-31T23:59:59
BX|KOOLE|-22.993059|20.195551|1313.0|Kole|2018-02-17T00:00:00|2599-12-31T23:59:59
BX|KSANE|-17.800171|25.161894|1006.0|Kasane|2018-02-17T00:00:00|2599-12-31T23:59:59
BX|LKGWB|-24.11351|21.782303|1153.0|Lokgwabe|2018-02-17T00:00:00|2599-12-31T23:59:59
BX|LPHEP|-23.363029|25.859613|1020.0|Lephepe|2018-02-17T00:00:00|2599-12-31T23:59:59
BX|MAKGR|-25.81185|24.800846|1158.0|Mmakgori|2018-02-17T00:00:00|2599-12-31T23:59:59
BX|PHDHD|-20.195681|24.537193|956.0|Phuduhudu|2018-02-17T00:00:00|2599-12-31T23:59:59
BX|PHPEN|-25.475531|22.857294|1030.0|Phepheng|2018-02-17T00:00:00|2599-12-31T23:59:59
BX|QNGWA|-19.52956|21.174|1094.0|Qangwa|2018-02-17T00:00:00|2599-12-31T23:59:59
BX|SOOWA|-20.562851|26.21785|941.0|Sowa|2018-02-17T00:00:00|2599-12-31T23:59:59
BX|XAUDM|-18.53956|21.338223|1060.0|Xaudum|2018-02-17T00:00:00|2599-12-31T23:59:59
C|GO03|-27.5937|-70.2347|730.0|Copiapo (Tierra Amarilla), Chile|2011-08-01T00:00:00|2599-12-31T23:59:59
C|GO04|-30.1727|-70.7993|2076.0|Tololo Observatory, Vicuna, Chile|2011-07-15T00:00:00|2599-12-31T23:59:59
C|GO05|-35.0099|-71.9303|488.0|Hualane, Chile|2011-06-30T00:00:00|2599-12-31T23:59:59
C|GO06|-39.5839|-71.472|1258.0|Curarrehue (Paso Mamuil Malal), Chile|2011-08-01T00:00:00|2599-12-31T23:59:59
C|GO07|-43.1142|-73.6644|178.0|Milladeo Hill, Quellon, Chile|2011-09-24T00:00:00|2599-12-31T23:59:59
C|GO08|-48.4648|-72.5566|1000.0|Villa O'Higgins, Chile|2011-08-01T00:00:00|2599-12-31T23:59:59
C|GO09|-51.270699|-72.338097|268.0|Cerro Castillo, Chile|2011-07-04T00:00:00|2599-12-31T23:59:59
C|GO10|-53.154598|-71.049797|652.0|Punta Arenas, Chile|2011-07-10T00:00:00|2599-12-31T23:59:59
C0|CHIL|40.446466|-104.638217|1423.7|CSU-CHILL Radar|2020-02-21T00:00:00|2599-12-31T23:59:59
C0|HAYD|40.52806|-107.26551|2202.3|Hayden Colorado|2018-06-01T00:00:00|2599-12-31T23:59:59
C0|LAMA|38.273002|-102.645293|1182.4|Lamar Colorado|2018-11-07T00:00:00|2599-12-31T23:59:59
C0|MCSU|40.568455|-105.587774|2756.1|Colorado State University - Mountain Campus - CO USA|2019-07-07T00:00:00|2599-12-31T23:59:59
C0|Q24A|38.9641|-105.1492|2772.3|Divide, CO|2019-02-26T00:00:00|2599-12-31T23:59:59
C0|S22A|37.74612|-106.82926|2623.7|4UR Ranch, Creede, CO|2019-03-07T00:00:00|2599-12-31T23:59:59
C0|T25A|37.1388|-104.41087|2012.9|Trinidad, CO|2019-03-07T00:00:00|2599-12-31T23:59:59
C1|AC01|-26.14788|-70.59866|346.0|Pan de Azucar|2012-08-13T00:00:00|2599-12-31T23:59:59
C1|AC02|-26.835517|-69.129067|3980.0|Maricunga|2014-02-04T00:00:00|2599-12-31T23:59:59
C1|AC04|-28.204575|-71.073928|228.0|Llanos de Challe|2014-02-08T00:00:00|2599-12-31T23:59:59
C1|AC05|-28.836377|-70.273777|1227.0|El Transito|2014-02-09T00:00:00|2599-12-31T23:59:59
C1|AC06|-27.357117|-70.354689|380.0|Copiapo, Mina Casimiro Domeyko|2015-08-28T13:49:46|2599-12-31T23:59:59
C1|AF01|-22.95196|-68.17876|2442.9|SAN PEDRO DE ATACAMA|2015-06-05T00:00:00|2599-12-31T23:59:59
C1|AP01|-18.37084|-70.34197|31.0|Chacalluta|2013-11-16T00:00:00|2599-12-31T23:59:59
C1|AP02|-18.853959|-69.143334|4334.0|Surire|2017-04-27T05:38:00|2599-12-31T23:59:59
C1|AY01|-44.42092|-72.64803|9.0|PUYUHUAPI|2015-05-09T00:00:00|2599-12-31T23:59:59
C1|AY02|-46.48392|-73.19474|79.0|VALLE EXPLORADORES|2015-04-07T00:00:00|2599-12-31T23:59:59
C1|AY03|-47.253042|-72.590769|206.5|Cochrane|2017-01-10T18:01:29|2599-12-31T23:59:59
C1|AY04|-46.582606|-71.6909|308.4|Chile Chico|2019-04-24T13:03:09|2599-12-31T23:59:59
C1|AY05|-45.150958|-73.511667|20.5|Puerto Aguirre|2019-01-16T20:06:58|2599-12-31T23:59:59
C1|BI02|-36.6634|-71.2731|913.0|San Fabian de Alico|2014-01-10T00:00:00|2599-12-31T23:59:59
C1|BI04|-38.41161|-73.88622|41.0|Isla Mocha|2016-10-28T00:00:00|2599-12-31T23:59:59
C1|BI05|-36.74784|-73.19051|52.0|Faro Punta Hualpen|2015-09-13T00:00:00|2599-12-31T23:59:59
C1|BI06|-36.131306|-72.788472|23.0|Cobquecura|2018-02-16T14:48:54|2599-12-31T23:59:59
C1|BO01|-34.3917|-71.0848|262.5|Tunca|2014-02-06T00:00:00|2599-12-31T23:59:59
C1|BO02|-34.7924|-70.7814|886.0|Daracena|2014-01-16T00:00:00|2599-12-31T23:59:59
C1|BO03|-34.49605|-71.9612|128.0|Pichilemu|2014-10-29T00:00:00|2599-12-31T23:59:59
C1|BO04|-33.98884|-70.60902|625.0|La Punta|2015-09-25T00:00:00|2599-12-31T23:59:59
C1|CO01|-29.9773|-70.0939|2157.0|Juntas del Toro|2014-02-11T00:00:00|2599-12-31T23:59:59
C1|CO02|-31.2037|-71.0003|1190.0|Combarbala|2013-06-19T00:00:00|2599-12-31T23:59:59
C1|CO03|-30.8389|-70.6891|1003.0|El Pedregal|2014-02-11T00:00:00|2599-12-31T23:59:59
C1|CO04|-32.0433|-70.9747|2401.0|Los Peladeros|2014-02-08T00:00:00|2599-12-31T23:59:59
C1|CO05|-29.91864|-71.23841|101.0|LA SERENA|2015-04-02T00:00:00|2599-12-31T23:59:59
C1|CO06|-30.673813|-71.634987|246.6|Fray Jorge, IV Region Coquimbo|2015-05-11T00:00:00|2599-12-31T23:59:59
C1|CO10|-29.24057|-71.46087|35.0|PUNTA DE CHOROS|2017-10-16T18:19:31|2599-12-31T23:59:59
C1|IN43|-62.20125|-58.9624|54.0|Base Profesor Escudero|2021-02-23T17:14:53|2599-12-31T23:59:59
C1|IN44|-62.478742|-59.664009|55.0|Base Arturo Prat|2021-02-23T13:11:29|2599-12-31T23:59:59
C1|LL01|-42.3787|-72.4125|62.0|San Ignacio de Huinay|2013-10-05T00:00:00|2599-12-31T23:59:59
C1|LL02|-43.19055|-71.84838|368.0|Futaleufu|2014-09-12T00:00:00|2599-12-31T23:59:59
C1|LL04|-40.90972|-72.40817|247.0|Puerto Octay|2015-02-17T00:00:00|2599-12-31T23:59:59
C1|LL05|-41.405341|-73.47445|208.0|Los Muermos|2015-02-04T00:00:00|2599-12-31T23:59:59
C1|LL07|-42.83235|-73.47785|53.5|Hotel Espejo de Luna|2015-02-03T00:00:00|2599-12-31T23:59:59
C1|LR02|-39.80608|-73.25045|0.0|Universidad Austral|2015-08-14T00:00:00|2599-12-31T23:59:59
C1|LR03|-39.632184|-72.345701|253.2|Panguipulli|2015-08-29T00:00:00|2599-12-31T23:59:59
C1|LR04|-39.88019|-73.425822|93.6|Corral|2015-09-13T00:00:00|2599-12-31T23:59:59
C1|LR05|-40.229975|-72.0044|203.5|Currine|2016-01-14T00:00:00|2599-12-31T23:59:59
C1|MG02|-52.7808|-69.2242|82.0|Cerro Sombrero|2014-12-20T00:00:00|2599-12-31T23:59:59
C1|MG03|-53.84798|-70.46275|83.0|ISLA DAWSON|2015-04-23T00:00:00|2599-12-31T23:59:59
C1|MG04|-52.8572|-71.57|82.0|Riesco|2015-02-14T00:00:00|2599-12-31T23:59:59
C1|MG05|-51.6784|-72.5032|99.0|Puerto Natales|2015-02-19T00:00:00|2599-12-31T23:59:59
C1|ML02|-35.7626|-71.4181|237.0|Panimavida|2014-11-07T00:00:00|2599-12-31T23:59:59
C1|ML03|-35.717189|-72.42244|274.0|Chanco|2020-01-29T18:21:37|2599-12-31T23:59:59
C1|MT01|-33.8641|-71.2509|310.0|Daracena|2014-01-14T00:00:00|2599-12-31T23:59:59
C1|MT02|-33.2591|-71.1377|323.0|Curacavi|2014-01-15T00:00:00|2599-12-31T23:59:59
C1|MT03|-33.4936|-70.5102|1087.0|Universidad Adolfo Ibanez|2014-04-22T00:00:00|2599-12-31T23:59:59
C1|MT04|-33.466388|-70.136194|1922.0|Olivares|2017-01-26T00:00:00|2599-12-31T23:59:59
C1|MT05|-33.3919|-70.7381|765.0|Cerro Colorado - Renca|2014-04-10T00:00:00|2599-12-31T23:59:59
C1|MT07|-32.975956|-71.015636|2234.0|Cerro El Roble|2014-01-10T00:00:00|2599-12-31T23:59:59
C1|MT08|-33.405158|-70.133366|2045.0|Bocatoma Colorado|2017-02-01T00:00:00|2599-12-31T23:59:59
C1|MT09|-33.77622|-70.98867|1371.0|Talagante|2014-10-15T00:00:00|2599-12-31T23:59:59
C1|MT10|-33.27279|-70.53723|1410.0|Hacienda Santa Martina|2017-01-27T00:00:00|2599-12-31T23:59:59
C1|MT12|-33.73273|-70.54869|727.1|Pirque|2017-01-27T00:00:00|2599-12-31T23:59:59
C1|MT13|-33.7435|-70.28609|1198.6|San Alfonso|2017-02-03T00:00:00|2599-12-31T23:59:59
C1|MT14|-33.39573|-70.536232|855.5|Calan|2017-08-17T00:00:00|2599-12-31T23:59:59
C1|MT15|-33.599397|-70.506261|784.4|Las Vizcachas|2017-10-20T16:28:13|2599-12-31T23:59:59
C1|MT16|-33.42848|-70.523351|780.0|CCHEN|2017-12-05T00:00:00|2599-12-31T23:59:59
C1|MT18|-33.4631|-70.66439|525.0|Casona|2018-03-07T12:00:00|2599-12-31T23:59:59
C1|TA01|-20.5656|-70.1807|75.0|Daracena|2013-11-21T00:00:00|2599-12-31T23:59:59
C1|TA02|-20.270527|-70.131035|23.3|Huaiquique|2018-09-06T18:19:08|2599-12-31T23:59:59
C1|VA01|-33.0229|-71.6374|37.0|Torpederas|2013-09-05T00:00:00|2599-12-31T23:59:59
C1|VA02|-27.1603|-109.4345|49.0|Isla de Pascua|2013-08-14T00:00:00|2599-12-31T23:59:59
C1|VA03|-32.7637|-70.5508|1053.0|San Esteban|2013-11-28T00:00:00|2599-12-31T23:59:59
C1|VA04|-33.6427|-78.8299|117.0|Juan Fernandez|2014-05-27T00:00:00|2599-12-31T23:59:59
C1|VA06|-32.56117|-71.29765|80.0|CATAPILCO|2015-09-11T00:00:00|2599-12-31T23:59:59
CA|ARBS|42.434492|1.533754|2145.0|La Rabassa|2009-10-01T00:00:00|2599-12-31T23:59:59
CA|CARA|42.707643|0.818132|1627.0|Aran|2011-11-16T00:00:00|2599-12-31T23:59:59
CA|CAVN|41.881578|0.750608|634.0|Les Avellanes|1999-06-01T00:00:00|2599-12-31T23:59:59
CA|CBEU|42.255629|2.675797|824.0|Beuda|2007-05-01T00:00:00|2599-12-31T23:59:59
CA|CBRU|42.284408|2.179001|1327.0|Bruguera|2000-12-01T00:00:00|2599-12-31T23:59:59
CA|CBUD|40.7044|0.8263|5.0|Illa de Buda|2016-03-09T00:00:00|2599-12-31T23:59:59
CA|CCAS|41.882875|2.904141|197.0|Cassa de la Selva|2005-12-16T00:00:00|2599-12-31T23:59:59
CA|CEST|42.598651|1.254059|1325.0|Esterri de Cardos|2006-06-01T00:00:00|2599-12-31T23:59:59
CA|CFAR|40.5604|0.6614|2.0|Far de la Banya|2016-03-01T00:00:00|2599-12-31T23:59:59
CA|CFON|41.761185|2.434581|973.0|Fontmartina|1999-06-01T00:00:00|2599-12-31T23:59:59
CA|CGAR|41.293309|1.913703|584.0|Garraf|2001-08-01T00:00:00|2599-12-31T23:59:59
CA|CLLI|42.478105|1.972973|1413.0|Llivia|1999-06-01T00:00:00|2599-12-31T23:59:59
CA|CMAS|40.72568|0.313875|530.0|Mas de Barberans|2006-04-01T00:00:00|2599-12-31T23:59:59
CA|CORG|42.229088|1.316531|720.0|Organya|2001-02-01T00:00:00|2599-12-31T23:59:59
CA|CORI|41.972401|2.048795|621.0|Orista|2006-02-01T00:00:00|2599-12-31T23:59:59
CA|CPAL|42.310533|3.16244|212.0|Palau-saverdera|2007-03-01T00:00:00|2599-12-31T23:59:59
CA|CSOR|42.374429|1.132743|1227.0|Soriguera|2001-12-01T00:00:00|2599-12-31T23:59:59
CA|CTRE|42.322275|0.77236|1318.0|Tremp|2006-07-01T00:00:00|2599-12-31T23:59:59
CC|ASBU|43.82056|-121.368401|1538.0|Astronaut Butte|2011-11-16T00:00:00|2599-12-31T23:59:59
CC|BRSP|45.40155|-121.70843|2080.03|Barrett Spur|2020-07-22T00:00:00|2599-12-31T23:59:59
CC|CARB|46.98832|-122.00541|872.5|Carbon Repeater|2018-10-16T00:00:00|2599-12-31T23:59:59
CC|CIHL|43.75097|-121.14862|1966.0|Cinder Hill, Newberry Volcano|2011-08-17T00:00:00|2599-12-31T23:59:59
CC|CLBH|42.907745|-122.143494|2197.0|Crater Lake Bunk House|2015-08-14T00:00:00|2599-12-31T23:59:59
CC|CLCV|42.976139|-122.088882|1892.0|Crater Lake, Cleetwood Cove, OR, USA|2012-01-09T00:00:00|2599-12-31T23:59:59
CC|CLMS|42.922958|-122.016258|2719.0|Crater Lake, Mount Scott, OR, USA|2009-08-19T00:00:00|2599-12-31T23:59:59
CC|CPCO|43.72201|-121.23319|2135.0|Central Pumice Cone, Newberry Volcano|2011-08-10T00:00:00|2599-12-31T23:59:59
CC|CRBN|46.988131|-121.961063|500.08|Carbon River Ranger Station|2020-10-22T00:00:00|2599-12-31T23:59:59
CC|GTWY|46.740208|-121.916966|617.235|Gateway Entrance Station|2020-10-28T20:00:00|2599-12-31T23:59:59
CC|GUAC|46.2192|-122.19233|1618.3|Guacamole, crater of Mount St. Helens|2018-11-19T00:00:00|2599-12-31T23:59:59
CC|HIYU|45.43523|-121.807396|1418.0|Hiyu Mountain|2013-11-19T00:00:00|2599-12-31T23:59:59
CC|HUSB|44.119455|-121.849361|2038.0|The Husband|2013-08-14T00:00:00|2599-12-31T23:59:59
CC|JRO|46.27527|-122.21826|1219.0|Johnston Ridge Observatory|2004-10-02T00:00:00|2599-12-31T23:59:59
CC|KAUT|46.730263|-121.857381|689.0|Kautz Creek Helibase|2020-09-02T00:00:00|2599-12-31T23:59:59
CC|KWBU|43.752399|-121.311852|1783.0|Kawak Butte|2011-08-18T00:00:00|2599-12-31T23:59:59
CC|LSON|45.3596|-121.64719|1881.0|Lamberson Butte|2020-07-22T00:00:00|2599-12-31T23:59:59
CC|NORM|43.73896|-121.252678|1286.0|North Rim, Newberry Volcano|2011-08-24T00:00:00|2599-12-31T23:59:59
CC|OBSR|46.899719|-121.815331|2382.0|Observation Rock|2008-11-19T00:00:00|2599-12-31T23:59:59
CC|OPCH|46.731288|-121.5713|593.43|Ohanapecosh Administrative Area|2020-10-26T00:00:00|2599-12-31T23:59:59
CC|PALM|45.358574|-121.705536|2590.0|Top of Palmer Lift|2014-09-28T00:00:00|2599-12-31T23:59:59
CC|PARA|46.786441|-121.742195|1651.18|Paradise Precip Tower|2020-10-07T00:00:00|2599-12-31T23:59:59
CC|PR01|46.910103|-122.037586|648.0|Puyallup River 01|2016-11-03T00:00:00|2599-12-31T23:59:59
CC|PR02|46.918303|-122.048695|461.0|Puyallup River 02|2016-11-17T00:00:00|2599-12-31T23:59:59
CC|PR03|46.903433|-122.032691|523.0|Puyallup River 03|2016-09-15T00:00:00|2599-12-31T23:59:59
CC|PR04|46.929773|-121.988592|908.0|Puyallup River 04|2017-01-01T00:00:00|2599-12-31T23:59:59
CC|PR05|46.841723|-121.948863|1553.0|Puyallup River 05|2017-09-28T00:00:00|2599-12-31T23:59:59
CC|PRLK|44.20975|-121.96264|1283.0|Prince Lake|2001-06-01T00:00:00|2599-12-31T23:59:59
CC|RUSH|46.90305|-121.94419|1235.0|Rushingwater Creek|2019-06-20T00:00:00|2599-12-31T23:59:59
CC|SEP|46.19978|-122.190857|2114.0|September lobe, Mt. St. Helens (Dome sta)|2004-11-05T00:00:00|2599-12-31T23:59:59
CC|SHRK|45.464317|-121.52877|1318.7|Shell Rock|2015-08-04T00:00:00|2599-12-31T23:59:59
CC|SIFT|46.86683|-121.95329|732.0|Swift Creek|2019-06-20T00:00:00|2599-12-31T23:59:59
CC|STD|46.23749|-122.22421|1189.0|Studebaker Ridge, Mount St. Helens|2004-10-05T00:00:00|2599-12-31T23:59:59
CC|SUG|46.215549|-122.176262|1859.0|Sugar Bowl|2009-08-07T00:00:00|2599-12-31T23:59:59
CC|SVIC|43.643082|-121.253273|1765.0|Surveyor's Cave, OR, USA|2011-08-24T00:00:00|2599-12-31T23:59:59
CC|SWF2|46.178349|-122.216766|1548.0|Southwest Flank 2, Mount St. Helens|2013-08-29T00:00:00|2599-12-31T23:59:59
CC|SWNB|43.67274|-121.35535|1569.0|Southwest Newberry, Newberry Volcano|2011-08-21T00:00:00|2599-12-31T23:59:59
CC|TCBU|44.24083|-121.66438|1646.0|Trout Creek Butte|2008-04-22T00:00:00|2599-12-31T23:59:59
CC|TIMB|45.33572|-121.710358|1869.0|Timberline, OR|2006-09-29T00:00:00|2599-12-31T23:59:59
CC|TMBU|43.60189|-121.14451|1743.0|Tom Butte, Newberry Volcano|2011-08-24T00:00:00|2599-12-31T23:59:59
CC|VALT|46.214218|-122.189247|1681.0|Vault, Mount St. Helens|2006-09-30T00:00:00|2599-12-31T23:59:59
CC|VOIT|46.96636|-121.98328|977.1|Voight Creek|2019-09-25T00:00:00|2599-12-31T23:59:59
CC|WIFE|44.05966|-121.81746|1955.0|The Wife|2004-07-28T00:00:00|2599-12-31T23:59:59
CC|WIZ|42.934181|-122.149208|1884.0|Crater Lake, Wizard Island, OR|2012-01-09T00:00:00|2599-12-31T23:59:59
CC|YOCR|45.379178|-121.743539|1913.69|Yocum Ridge|2020-10-01T00:00:00|2599-12-31T23:59:59
CH|BRANT|46.938011|6.47298|1145.0|Les Verrieres|2002-11-06T00:00:00|2599-12-31T23:59:59
CH|FIESA|46.435268|8.11043|2338.0|Fiescheralp|2009-11-12T00:00:00|2599-12-31T23:59:59
CH|FUORN|46.62022|10.26352|2333.0|Ofenpass-Fuorn|2000-09-29T00:00:00|2599-12-31T23:59:59
CH|HASLI|46.756809|8.15117|1280.0|Hasliberg/Brienz|1999-06-16T00:00:00|2599-12-31T23:59:59
CH|LIENZ|47.294601|9.4927|1720.0|Kamor / St. Gall|2004-10-28T14:10:00|2599-12-31T23:59:59
CH|MUGIO|45.92186|9.04167|830.0|Muggio|2002-02-20T00:00:00|2599-12-31T23:59:59
CH|SENIN|46.36335|7.2993|2035.0|Lac Selin/Sanetsch|2002-02-13T00:00:00|2599-12-31T23:59:59
CH|SLE|47.7645|8.49236|648.0|Schleitheim|2001-04-14T00:00:00|2599-12-31T23:59:59
CI|ADO|34.550461|-117.433907|908.0|Adelanto Receiving|2000-08-09T00:00:00|2599-12-31T23:59:59
CI|ARV|35.1269|-118.83009|258.0|Arvin|1983-09-15T00:00:00|2599-12-31T23:59:59
CI|BAK|35.34444|-119.104446|116.0|Calstate Bakersfield|1999-06-21T00:00:00|2599-12-31T23:59:59
CI|BAR|32.68005|-116.67215|529.0|Barrett|1932-09-04T00:00:00|2599-12-31T23:59:59
CI|BBR|34.2623|-116.92075|2069.0|Big Bear Solar Observatory|2000-06-14T22:00:00|2599-12-31T23:59:59
CI|BC3|33.655151|-115.453659|1137.0|Big Chuckawalla Mtns|1991-05-08T00:00:00|2599-12-31T23:59:59
CI|BEL|34.0006|-115.9982|1388.0|Belle Mountain Joshua Tree|2001-03-15T00:00:00|2599-12-31T23:59:59
CI|BFS|34.238831|-117.658531|1312.0|Mt. Baldy Ranger Station|2001-07-10T00:00:00|2599-12-31T23:59:59
CI|CHF|34.333408|-118.025848|1594.0|Chilao Flat Rngr Sta|1998-11-03T00:00:00|2599-12-31T23:59:59
CI|CIA|33.401897|-118.415024|477.0|Catalina Island Airport|1998-09-10T00:00:00|2599-12-31T23:59:59
CI|CWC|36.439049|-118.080498|1569.5|Cottonwood Creek|1965-10-15T00:00:00|2599-12-31T23:59:59
CI|DAN|34.63745|-115.38115|428.0|Danby|1998-09-22T00:00:00|2599-12-31T23:59:59
CI|DEC|34.253529|-118.333832|519.0|Green Verdugo Site|2000-08-10T20:30:00|2599-12-31T23:59:59
CI|DGR|33.65001|-117.00947|650.0|Domenigoni|1993-06-22T00:00:00|2599-12-31T23:59:59
CI|DJJ|34.10618|-118.45505|268.0|Donna Jones Jenkins|1998-11-09T00:00:00|2599-12-31T23:59:59
CI|EDW2|34.8811|-117.993881|772.0|Edwards 2|2004-05-04T00:00:00|2599-12-31T23:59:59
CI|FMP|33.712639|-118.293808|89.0|Fort Macarthur Park|2000-08-30T00:00:00|2599-12-31T23:59:59
CI|FUR|36.46703|-116.86322|-37.0|Furnace Creek|1996-11-19T00:00:00|2599-12-31T23:59:59
CI|GLA|33.05149|-114.82706|610.0|Glamis|1966-12-19T00:00:00|2599-12-31T23:59:59
CI|GMR|34.784569|-115.659943|1326.0|Granite Mountains Research Center|2006-04-04T00:00:00|2599-12-31T23:59:59
CI|GRA|36.996078|-117.366211|689.0|Grapevine Ranger Station|2001-04-18T00:00:00|2599-12-31T23:59:59
CI|HEC|34.8294|-116.335|920.0|Hector|1997-08-01T00:00:00|2599-12-31T23:59:59
CI|IKP|32.65012|-116.109482|906.0|In-Ko-Pah|1972-03-29T00:00:00|2599-12-31T23:59:59
CI|IRM|34.157379|-115.145126|567.0|Iron Mountain|2001-12-05T00:00:00|2599-12-31T23:59:59
CI|ISA|35.66278|-118.47403|873.0|Isabella|1946-03-16T00:00:00|2599-12-31T23:59:59
CI|LRL|35.47954|-117.68212|1340.0|Laurel Mtn|1992-07-29T00:00:00|2599-12-31T23:59:59
CI|MLAC|37.630192|-118.836052|2162.0|Mammoth|1992-11-04T00:00:00|2599-12-31T23:59:59
CI|MPM|36.05799|-117.48901|1839.0|Manuel Prospect Mine|1998-06-25T00:00:00|2599-12-31T23:59:59
CI|MUR|33.599991|-117.195427|562.0|Murrieta|2005-07-25T00:00:00|2599-12-31T23:59:59
CI|MWC|34.22362|-118.05832|1725.0|Mount Wilson Obsv|1928-04-23T00:00:00|2599-12-31T23:59:59
CI|OSI|34.614498|-118.723503|718.0|Osito Audit: Castaic Lake|1995-06-28T00:00:00|2599-12-31T23:59:59
CI|PASC|34.17141|-118.18523|341.0|Art Center College of Design (GSN-affiliate)|2006-10-05T00:00:00|2599-12-31T23:59:59
CI|PDM|34.30336|-114.141518|144.0|Parker|2001-09-20T00:00:00|2599-12-31T23:59:59
CI|PHL|35.40773|-120.54556|355.0|Park Hill|1997-07-23T00:00:00|2599-12-31T23:59:59
CI|PLM|33.353611|-116.862648|1691.0|Palomar|1939-09-09T00:00:00|2599-12-31T23:59:59
CI|RPV|33.743462|-118.404121|107.0|Rancho Palos Verdes|1993-05-12T00:00:00|2599-12-31T23:59:59
CI|RRX|34.875332|-116.996841|676.2|Barstow Service Center|2000-11-08T00:00:00|2599-12-31T23:59:59
CI|SBC|34.440762|-119.71492|94.0|Santa Barbara|1932-01-05T00:00:00|2599-12-31T23:59:59
CI|SCI2|32.9799|-118.546967|199.0|San Clemente Island 2|2003-10-23T00:00:00|2599-12-31T23:59:59
CI|SDD|33.552589|-117.661713|120.0|Saddleback|1999-04-20T00:00:00|2599-12-31T23:59:59
CI|SHO|35.899529|-116.275299|451.0|Shoshone|1996-10-14T00:00:00|2599-12-31T23:59:59
CI|SLA|35.89095|-117.28332|1174.0|Slate Mountain|1999-03-09T00:00:00|2599-12-31T23:59:59
CI|SMM|35.3142|-119.99581|599.0|Simmler|1999-11-09T00:00:00|2599-12-31T23:59:59
CI|SVD|34.106468|-117.098221|605.0|Seven Oaks|1990-12-04T00:00:00|2599-12-31T23:59:59
CI|SWS|32.94508|-115.79988|140.0|Sam W. Stewart|1997-09-20T00:00:00|2599-12-31T23:59:59
CI|TIN|37.054218|-118.230087|1197.0|Tinemaha|1932-01-01T00:00:00|2599-12-31T23:59:59
CI|TUQ|35.43584|-115.92389|1350.0|Turquoise Mountain|2002-05-02T00:00:00|2599-12-31T23:59:59
CI|USC|34.019192|-118.286308|58.0|Univ Southern Ca|1993-02-17T00:00:00|2599-12-31T23:59:59
CI|VES|35.840889|-119.084686|154.0|Vestal|1999-09-30T00:00:00|2599-12-31T23:59:59
CI|VOG|36.32098|-119.382263|90.0|Valley Oaks Golf Course|2011-05-26T00:00:00|2599-12-31T23:59:59
CI|VTV|34.56065|-117.329597|843.0|Victorville|1993-04-14T00:00:00|2599-12-31T23:59:59
CM|LCBC|8.857167|-76.367667|75.0|Los Cordobas, Cordoba, Colombia|2013-11-16T00:00:00|2599-12-31T23:59:59
CM|RUS|5.8925|-73.083167|3697.0|La Rusia, Boyaca, Colombia|2009-04-03T00:00:00|2599-12-31T23:59:59
CM|SJC|9.896667|-75.1795|596.0|San Jacinto, Bolivar, Colombia|2011-05-03T00:00:00|2599-12-31T23:59:59
CM|TUM|1.823667|-78.726667|50.0|Tumaco, Narino, Colombia|2007-06-30T00:00:00|2599-12-31T23:59:59
CM|URI|11.702|-71.993|68.0|Uribia, Guajira, Colombia|2008-12-17T00:00:00|2599-12-31T23:59:59
CN|A11|47.2431|-70.1969|55.0|St-Roch-Des-Aulnaies, QC, CA|1994-10-16T00:00:00|2599-12-31T23:59:59
CN|A16|47.468|-70.0096|13.0|Riviere Ouelle, QC, CA|1994-10-15T00:00:00|2599-12-31T23:59:59
CN|A21|47.7045|-69.6892|47.0|St-Andre, QC, CA|1994-10-17T00:00:00|2599-12-31T23:59:59
CN|A54|47.4568|-70.4134|377.0|Misere, QC, CA|1994-10-20T00:00:00|2599-12-31T23:59:59
CN|A61|47.6936|-70.0914|380.0|Sainte Mathilde, QC, CA|1994-10-19T00:00:00|2599-12-31T23:59:59
CN|A64|47.8274|-69.8914|132.0|Saint-Simeon, QC, CA|1994-10-19T00:00:00|2599-12-31T23:59:59
CN|ATKO|48.8231|-91.6004|382.7|Atikokan Iron Mine, ON, CA|2004-06-09T00:00:00|2599-12-31T23:59:59
CN|BAIB|52.5757|-131.7534|804.0|Barry Inlet, BC, CA|2017-08-10T00:00:00|2599-12-31T23:59:59
CN|BBB|52.1847|-128.1133|14.0|Bella Bella, BC, CA|1993-10-29T00:00:00|2599-12-31T23:59:59
CN|BCLQ|46.9264|-71.1727|147.0|Boischatel, QC, CA|2007-11-02T00:00:00|2599-12-31T23:59:59
CN|BFSB|48.8336|-125.136|33.0|Bamfield, BC, CA|2013-11-15T00:00:00|2599-12-31T23:59:59
CN|BJBQ|50.2874|-62.8094|6.0|Baie Johan Beetz, QC, CA|2017-09-23T00:00:00|2599-12-31T23:59:59
CN|BLKN|64.3185|-96.0024|40.0|Baker Lake, NU, CA|2017-08-13T00:00:00|2599-12-31T23:59:59
CN|BMTB|56.0451|-122.1332|1099.0|Bullhead Mountain, BC, CA|2017-09-18T00:00:00|2599-12-31T23:59:59
CN|BNAB|53.4932|-130.6368|-19.0|Bonilla, BC, CA|1999-04-16T00:00:00|2599-12-31T23:59:59
CN|BPEB|50.1566|-127.7719|737.0|Brooks Peninsula, BC, CA|2018-06-22T00:00:00|2599-12-31T23:59:59
CN|BRWY|61.3704|-139.0338|802.5|Burwash Landing, YT, CA|2018-07-12T00:00:00|2599-12-31T23:59:59
CN|BSPQ|47.4418|-70.5056|9.0|Baie-St-Paul, QC, CA|1999-02-26T00:00:00|2599-12-31T23:59:59
CN|BVCY|62.4141|-140.8606|708.0|Beaver Creek, YT, CA|2010-08-14T00:00:00|2599-12-31T23:59:59
CN|CACQ|47.9481|-69.4996|6.0|Cacouna, QC, CA|2018-06-14T00:00:00|2599-12-31T23:59:59
CN|CBB|50.0315|-125.3652|277.0|Campbell River, BC, CA|1996-11-28T00:00:00|2599-12-31T23:59:59
CN|CHEG|46.8083|-60.6745|443.0|Cheticamp, NS, CA|2005-10-19T00:00:00|2599-12-31T23:59:59
CN|CHIQ|48.4898|-71.0123|144.0|Chicoutimi-Nord, QC, CA|2018-06-03T00:00:00|2599-12-31T23:59:59
CN|CHRO|46.0376|-77.3794|180.0|Chalk River, ON, CA|2018-10-17T00:00:00|2599-12-31T23:59:59
CN|CLRS|48.8203|-124.1309|174.0|Cowichan Lake Research St, BC, CA|2014-09-11T00:00:00|2599-12-31T23:59:59
CN|CNQ|49.302|-68.0746|200.0|Cote-Nord, QC, CA|1996-02-01T00:00:00|2599-12-31T23:59:59
CN|COBO|45.6269|-76.8835|146.0|Cobden, ON, CA|2018-12-19T00:00:00|2599-12-31T23:59:59
CN|DAWY|64.0647|-139.3937|771.0|Dawson, YT, CA|1993-07-01T00:00:00|2599-12-31T23:59:59
CN|DI2B|53.2022|-132.4767|82.0|Dawson Inlet, BC, CA|2018-07-22T00:00:00|2599-12-31T23:59:59
CN|DIB|53.2025|-132.4767|68.0|Dawson Inlet, BC, CA|2004-03-15T00:00:00|2599-12-31T23:59:59
CN|DLBC|58.4368|-130.0304|976.0|Dease Lake, BC, CA|1994-09-28T00:00:00|2599-12-31T23:59:59
CN|DPQ|46.6803|-72.7771|179.0|St-Jean-Des-Piles, QC, CA|1996-09-20T00:00:00|2599-12-31T23:59:59
CN|DRLN|49.2562|-57.5032|241.0|Deer Lake, NL, CA|1993-12-14T00:00:00|2599-12-31T23:59:59
CN|DRMQ|45.8987|-72.4749|91.0|Drummondville, QC, CA|2019-09-18T00:00:00|2599-12-31T23:59:59
CN|EDM|53.223|-113.3497|727.0|Edmonton, AB, CA|1992-06-03T00:00:00|2599-12-31T23:59:59
CN|EFO|43.0925|-79.3099|137.0|Effingham, ON, CA|1995-02-28T00:00:00|2599-12-31T23:59:59
CN|EPLO|49.6737|-93.7258|437.3|Exp. Lake, ON, CA|2004-06-11T00:00:00|2599-12-31T23:59:59
CN|FCC|58.7592|-94.0884|19.0|Fort Churchill, MB, CA|1993-10-01T00:00:00|2599-12-31T23:59:59
CN|FNSB|58.8061|-122.7328|440.0|Fort Nelson, BC, CA|2017-08-02T00:00:00|2599-12-31T23:59:59
CN|FRB|63.7469|-68.5451|25.0|Iqaluit, NU, CA|1992-06-03T00:00:00|2599-12-31T23:59:59
CN|FSJB|54.4588|-124.2944|704.0|Fort St James, BC, CA|2015-11-04T00:00:00|2599-12-31T23:59:59
CN|GAC|45.7032|-75.4776|167.2|Glen Almond, QC, CA|1993-04-27T00:00:00|2599-12-31T23:59:59
CN|GBN|45.4079|-61.5128|47.0|Guysborough, NS, CA|2005-10-17T00:00:00|2599-12-31T23:59:59
CN|GDR|49.7805|-126.0557|123.0|Gold River, BC, CA|1996-11-28T00:00:00|2599-12-31T23:59:59
CN|GGN|45.1184|-66.842|28.0|Saint George, NB, CA|2002-01-30T00:00:00|2599-12-31T23:59:59
CN|GOBB|48.9493|-123.5105|173.0|Galiano Island, BC, CA|1999-02-02T00:00:00|2599-12-31T23:59:59
CN|GRQ|46.6059|-75.8587|303.0|Grand-Remous, QC, CA|1996-07-12T00:00:00|2599-12-31T23:59:59
CN|GTOO|49.7451|-86.9613|359.0|Geraldton, ON, CA|2017-06-11T00:00:00|2599-12-31T23:59:59
CN|HAL|44.6378|-63.5912|65.0|Halifax, NS, CA|2003-01-13T00:00:00|2599-12-31T23:59:59
CN|HOLB|50.6402|-128.1331|547.0|Holberg, BC, CA|1995-02-09T00:00:00|2599-12-31T23:59:59
CN|HOPB|49.3872|-121.4206|236.0|Hope, BC, CA|2001-11-23T00:00:00|2599-12-31T23:59:59
CN|HSNB|47.2769|-66.0601|337.0|Heath Steele Mine, NB, CA|2017-09-26T00:00:00|2599-12-31T23:59:59
CN|HYT|60.8267|-137.5072|1373.0|Haines Jct., YT, CA|1994-09-15T00:00:00|2599-12-31T23:59:59
CN|ICQ|49.5223|-67.2715|58.0|Islets-Caribou, QC, CA|1996-02-15T00:00:00|2599-12-31T23:59:59
CN|ILON|69.3712|-81.8243|50.0|Igloolik, NU, CA|2005-08-24T00:00:00|2599-12-31T23:59:59
CN|INK|68.3065|-133.5254|44.0|Inuvik, NT, CA|1992-02-28T00:00:00|2599-12-31T23:59:59
CN|KAPO|49.451|-82.5077|221.0|Kapuskasing, ON, CA|1998-01-14T00:00:00|2599-12-31T23:59:59
CN|KGNO|44.2272|-76.4934|89.0|Kingston, ON, CA|1999-12-21T00:00:00|2599-12-31T23:59:59
CN|KILO|48.4972|-79.7232|314.0|Kirkland Lake, ON, CA|2003-06-22T00:00:00|2599-12-31T23:59:59
CN|KIPQ|46.7919|-79.0567|274.0|Kipawa, QC, CA|2017-06-04T00:00:00|2599-12-31T23:59:59
CN|KUKN|67.8227|-115.0897|51.0|Kugluktuk, NT, CA|2010-07-21T00:00:00|2599-12-31T23:59:59
CN|KUQ|58.109|-68.4113|54.0|Kuujjuaq, QC, CA|1998-02-04T00:00:00|2599-12-31T23:59:59
CN|LDAQ|47.9636|-71.2443|934.0|Lac Daran, QC, CA|2017-08-30T00:00:00|2599-12-31T23:59:59
CN|LGNH|18.511|-72.6058|62.0|LEOGANE, OU, HT|2010-02-14T00:00:00|2599-12-31T23:59:59
CN|LLLB|50.609|-121.8815|700.0|Lillooet, BC, CA|1998-11-17T00:00:00|2599-12-31T23:59:59
CN|LMN|45.8544|-64.8063|365.0|Caledonia Mtn., NB, CA|1993-07-26T00:00:00|2599-12-31T23:59:59
CN|LMQ|47.5485|-70.3258|455.0|La Malbaie, QC, CA|1992-06-03T00:00:00|2599-12-31T23:59:59
CN|MASB|54.0244|-132.0223|3.0|Masset, BC, CA|1999-05-05T00:00:00|2599-12-31T23:59:59
CN|MCNB|45.5958|-67.3198|167.0|McAdam, NB, CA|2016-05-21T00:00:00|2599-12-31T23:59:59
CN|MGRB|48.9997|-124.6971|1310.0|Mount Grey, BC, CA|2018-10-24T00:00:00|2599-12-31T23:59:59
CN|MNTQ|45.5003|-73.6228|112.0|Montreal, QC, CA|2010-07-26T00:00:00|2599-12-31T23:59:59
CN|MOBC|53.1437|-131.9663|704.0|Moresby, BC, CA|1996-02-26T00:00:00|2599-12-31T23:59:59
CN|MOQ|45.3115|-72.2409|845.0|Mont-Orford, QC, CA|1996-09-17T00:00:00|2599-12-31T23:59:59
CN|MRBQ|45.7972|-73.9852|97.0|Mirabel, QC, CA|2019-05-11T00:00:00|2599-12-31T23:59:59
CN|NCSB|50.4031|-126.0559|1297.0|Newcastle Ridge, BC, CA|2017-11-01T00:00:00|2599-12-31T23:59:59
CN|NLLB|49.2271|-123.9882|199.0|Nanaimo Lost Lake, BC, CA|2003-01-01T00:00:00|2599-12-31T23:59:59
CN|NTKA|49.5924|-126.6166|12.0|Nootka, BC, CA|2013-03-23T00:00:00|2599-12-31T23:59:59
CN|ORIO|45.4515|-75.511|74.0|Orleans Innes Road, ON, CA|2008-06-19T00:00:00|2599-12-31T23:59:59
CN|OTAO|45.4069|-75.5526|21.0|Ottawa Anderson Road, ON, CA|2019-02-04T00:00:00|2599-12-31T23:59:59
CN|OTT|45.3942|-75.7167|77.0|Ottawa, ON, CA|1992-06-01T00:00:00|2599-12-31T23:59:59
CN|OZB|48.9612|-125.4978|626.0|Mt. Ozzard, BC, CA|1996-03-28T00:00:00|2599-12-31T23:59:59
CN|PABB|49.2188|-124.8114|36.0|Port Alberni, BC, CA|2018-03-31T00:00:00|2599-12-31T23:59:59
CN|PACB|50.4355|-127.4925|24.0|Port Alice, BC, CA|2010-06-24T00:00:00|2599-12-31T23:59:59
CN|PGC|48.6498|-123.4521|12.0|Sidney, BC, CA|1993-07-01T00:00:00|2599-12-31T23:59:59
CN|PHC|50.7067|-127.433|32.0|Port Hardy, BC, CA|1995-12-14T00:00:00|2599-12-31T23:59:59
CN|PKLO|51.4987|-90.3522|376.2|Pickle Lake, ON, CA|2004-06-15T00:00:00|2599-12-31T23:59:59
CN|PLBC|59.455|-136.3659|285.0|Pleasant Camp, BC, CA|2005-09-03T00:00:00|2599-12-31T23:59:59
CN|PMAQ|49.8285|-64.3269|25.0|Port Menier Anticosti Is, QC, CA|2015-09-16T00:00:00|2599-12-31T23:59:59
CN|PNPO|48.5957|-86.2846|219.3|Pukaskwa, ON, CA|2004-06-18T00:00:00|2599-12-31T23:59:59
CN|PNT|49.3224|-119.6254|531.0|Penticton, BC, CA|1993-02-03T00:00:00|2599-12-31T23:59:59
CN|POIN|72.7012|-77.962|21.0|Pond Inlet, NU, CA|2018-09-07T00:00:00|2599-12-31T23:59:59
CN|PTRF|48.5442|-124.4131|164.0|Port Renfrew PTRF, BC, CA|2017-02-17T00:00:00|2599-12-31T23:59:59
CN|QCQ|46.7792|-71.2756|90.0|Quebec City, QC, CA|1997-11-01T00:00:00|2599-12-31T23:59:59
CN|RES|74.6892|-94.8962|19.0|Resolute, NU, CA|1992-05-05T00:00:00|2599-12-31T23:59:59
CN|RIGQ|45.4469|-74.2581|149.0|Rigaud, QC, CA|2019-02-02T00:00:00|2599-12-31T23:59:59
CN|RUBB|54.3262|-130.2523|12.0|Prince Rupert, BC, CA|2001-07-18T00:00:00|2599-12-31T23:59:59
CN|SADO|44.7695|-79.1411|228.0|Sadowa, ON, CA|1993-12-03T00:00:00|2599-12-31T23:59:59
CN|SAKN|56.5359|-79.2324|2.0|Sanikiluaq, NU, CA|2014-11-25T00:00:00|2599-12-31T23:59:59
CN|SANQ|48.3249|-71.9886|296.0|St-Andre-du-Lac-St-Jean, QC, CA|2018-06-22T00:00:00|2599-12-31T23:59:59
CN|SCHQ|54.8324|-66.8332|497.5|Schefferville, QC,|1994-12-22T00:00:00|2599-12-31T23:59:59
CN|SFA|47.1246|-70.8266|227.0|St-Ferreol-les-Neiges, QC, CA|2018-06-05T00:00:00|2599-12-31T23:59:59
CN|SGRQ|46.1399|-70.5788|330.0|St-Georges, QC, CA|2019-07-21T00:00:00|2599-12-31T23:59:59
CN|SHB|49.5985|-123.8771|1129.0|Sechelt, BC, CA|1996-11-28T00:00:00|2599-12-31T23:59:59
CN|SJNN|47.5951|-52.678|143.0|St. Johns, NL, CA|2005-10-12T00:00:00|2599-12-31T23:59:59
CN|SJUQ|45.5621|-73.3233|66.0|Ste-Julie, QC, CA|2019-05-12T00:00:00|2599-12-31T23:59:59
CN|SLBQ|46.7418|-70.016|412.0|Ste-Lucie-de-Beauregard, QC, CA|2018-06-17T00:00:00|2599-12-31T23:59:59
CN|SMQ|50.2225|-66.7025|344.0|Ste-Marguerite, QC, CA|1996-02-02T00:00:00|2599-12-31T23:59:59
CN|SNFQ|48.888|-67.3511|65.0|Sainte-Felicite, QC, CA|2018-06-16T00:00:00|2599-12-31T23:59:59
CN|SOLO|50.0215|-92.0808|370.0|Sioux Lookout, ON, CA|1998-11-04T00:00:00|2599-12-31T23:59:59
CN|STPQ|47.5262|-69.8049|50.0|St-Pascal, QC, CA|2018-06-18T00:00:00|2599-12-31T23:59:59
CN|SUBO|46.6115|-81.1321|281.0|Sudbury, ON, CA|2017-06-06T00:00:00|2599-12-31T23:59:59
CN|SURQ|45.1675|-73.7081|60.0|Ste-Clotilde, QC, CA|2019-02-15T00:00:00|2599-12-31T23:59:59
CN|SYMB|48.5593|-123.7989|945.0|Survey Mountain, BC, CA|2016-09-19T00:00:00|2599-12-31T23:59:59
CN|TBO|48.6472|-89.4085|475.0|Thunder Bay, ON, CA|1993-10-05T00:00:00|2599-12-31T23:59:59
CN|TRQ|46.2176|-74.5513|860.0|Mont-Tremblant, QC, CA|2015-09-02T00:00:00|2599-12-31T23:59:59
CN|ULM|50.2503|-95.875|250.9|Lac Du Bonnet, MB, CA|1994-12-07T00:00:00|2599-12-31T23:59:59
CN|VGZ|48.4131|-123.3251|67.0|Victoria Gonzales, BC, CA|1994-07-21T00:00:00|2599-12-31T23:59:59
CN|VLDQ|48.1901|-77.7572|316.0|Val-dOr, QC, CA|2002-01-07T00:00:00|2599-12-31T23:59:59
CN|WBO|45.0012|-75.2753|840.0|Williamsburg, ON, CA|1993-12-16T00:00:00|2599-12-31T23:59:59
CN|WHY|60.6597|-134.8825|1273.0|Whitehorse, YT, CA|1994-10-03T00:00:00|2599-12-31T23:59:59
CN|WOSB|50.1608|-126.5704|961.0|Woss, BC, CA|1998-11-17T00:00:00|2599-12-31T23:59:59
CN|WPB|49.6478|-123.2094|260.0|Watts Point, BC, CA|1996-09-04T00:00:00|2599-12-31T23:59:59
CN|WSLR|50.1266|-122.9212|907.0|Whistler, BC, CA|2003-06-02T00:00:00|2599-12-31T23:59:59
CN|YKAB0|62.6059|-114.606|196.0|Yellowknife Blue 10, NT, CA|2013-06-26T00:00:00|2599-12-31T23:59:59
CN|YKAB1|62.4023|-114.6063|146.0|Yellowknife Blue 1, NT, CA|2013-06-26T00:00:00|2599-12-31T23:59:59
CN|YKAB2|62.4247|-114.6064|151.8|Yellowknife Blue 2, NT, CA|2013-06-26T00:00:00|2599-12-31T23:59:59
CN|YKAB3|62.4485|-114.6061|159.5|Yellowknife Blue 3, NT, CA|2013-06-26T00:00:00|2599-12-31T23:59:59
CN|YKAB4|62.4709|-114.6057|164.8|Yellowknife Blue 4, NT, CA|2013-06-26T00:00:00|2599-12-31T23:59:59
CN|YKAB6|62.5164|-114.6057|174.6|Yellowknife Blue 6, NT, CA|2013-06-26T00:00:00|2599-12-31T23:59:59
CN|YKAB7|62.5389|-114.6061|178.0|Yellowknife Blue 7, NT, CA|2013-06-26T00:00:00|2599-12-31T23:59:59
CN|YKAB8|62.5614|-114.6054|171.5|Yellowknife Blue 8, NT, CA|2013-06-26T00:00:00|2599-12-31T23:59:59
CN|YKAB9|62.5829|-114.6047|188.3|Yellowknife Blue 9, NT, CA|2013-06-26T00:00:00|2599-12-31T23:59:59
CN|YKAR1|62.4928|-114.9445|142.0|Yellowknife Red 1, NT, CA|2013-06-26T00:00:00|2599-12-31T23:59:59
CN|YKAR2|62.4928|-114.8959|146.2|Yellowknife Red 2, NT, CA|2013-06-26T00:00:00|2599-12-31T23:59:59
CN|YKAR3|62.4929|-114.8477|147.6|Yellowknife Red 3, NT, CA|2013-06-26T00:00:00|2599-12-31T23:59:59
CN|YKAR4|62.4927|-114.7998|150.1|Yellowknife Red 4, NT, CA|2013-06-26T00:00:00|2599-12-31T23:59:59
CN|YKAR5|62.4931|-114.7504|155.3|Yellowknife Red 5, NT, CA|2013-06-26T00:00:00|2599-12-31T23:59:59
CN|YKAR6|62.4932|-114.7019|162.0|Yellowknife Red 6, NT, CA|2013-06-26T00:00:00|2599-12-31T23:59:59
CN|YKAR7|62.4932|-114.6544|168.5|Yellowknife Red 7, NT, CA|2013-06-26T00:00:00|2599-12-31T23:59:59
CN|YKAR8|62.4931|-114.6061|168.0|Yellowknife Red 8, NT, CA|2013-06-26T00:00:00|2599-12-31T23:59:59
CN|YKAR9|62.493|-114.5564|172.6|Yellowknife Red 9, NT, CA|2013-06-26T00:00:00|2599-12-31T23:59:59
CN|YKAW1|62.4822|-114.4842|198.2|Yellowknife White 1, NT, CA|2013-07-15T00:00:00|2599-12-31T23:59:59
CN|YKAW3|62.5616|-114.6099|196.6|Yellowknife White 3, NT, CA|2013-07-15T00:00:00|2599-12-31T23:59:59
CN|YUK2|61.7668|-140.8426|1229.0|White River, YT, CA|2010-08-28T00:00:00|2599-12-31T23:59:59
CN|YUK3|61.7755|-140.4595|2100.0|Moose Creek, YT, CA|2010-08-25T00:00:00|2599-12-31T23:59:59
CN|YUK4|61.4348|-138.5463|2009.0|Talbot Arm, YT, CA|2010-08-29T00:00:00|2599-12-31T23:59:59
CN|YUK5|61.1315|-137.8593|1619.0|Granite Creek, YT, CA|2010-08-23T00:00:00|2599-12-31T23:59:59
CN|YUK6|60.9432|-138.3626|2233.0|Outpost Mountain, YT, CA|2010-08-29T00:00:00|2599-12-31T23:59:59
CN|YUK7|60.5307|-138.1399|1992.0|Dusty Glacier, YT, CA|2010-08-24T00:00:00|2599-12-31T23:59:59
CN|YUK8|61.2844|-139.7646|2456.0|Steele Glacier, YT, CA|2012-09-07T00:00:00|2599-12-31T23:59:59
CO|BIRD|34.645|-80.4615|132.0|Birdtown, Kershaw, SC, USA|2010-08-25T00:00:00|2599-12-31T23:59:59
CO|C1SC|32.798|-79.959|5.0|The Citadel,Charleston,SC|2012-10-08T19:00:00|2599-12-31T23:59:59
CO|CASEE|34.993|-82.9317|385.0|Lake Jocassee, SC, USA|2009-12-07T00:00:00|2599-12-31T23:59:59
CO|CSB|32.98698|-80.071545|6.0|Charleston Southern University, Charleston, SC, USA|2009-04-13T00:00:00|2599-12-31T23:59:59
CO|HAW|33.3612|-81.6097|112.0|Hawthorne Fire Tower, SC, USA|2010-03-11T00:00:00|2599-12-31T23:59:59
CO|HODGE|34.2315|-82.2586|151.0|Hodges, SC, USA|2010-03-25T00:00:00|2599-12-31T23:59:59
CO|JSC|34.2818|-81.25966|103.0|Jenkinsville, South Carolina|2009-04-13T00:00:00|2599-12-31T23:59:59
CO|PAULI|34.82097|-81.8144|179.0|Pauline, SC, USA|2011-04-26T00:00:00|2599-12-31T23:59:59
CO|SUMMV|33.0658|-80.2738|17.1|Summerville Airport, SC, USA|2015-04-21T00:00:00|2599-12-31T23:59:59
CO|TEEBA|32.8975|-80.1911|11.22|Mateeba, Summerville SC|2018-04-25T00:00:00|2599-12-31T23:59:59
CU|ANWB|17.66853|-61.78557|39.0|North Barbuda Island|2007-09-07T00:00:00|2599-12-31T23:59:59
CU|BBGH|13.1434|-59.5588|180.0|Gun Hill, Barbados|2006-09-06T18:12:00|2599-12-31T23:59:59
CU|GRGR|12.1324|-61.654|195.0|Grenville, Grenada|2006-12-12T11:41:00|2599-12-31T23:59:59
CU|GRTK|21.51149|-71.1327|12.0|Grand Turk, Turks and Caicos Islands|2007-12-18T00:00:00|2599-12-31T23:59:59
CU|GTBY|19.9268|-75.1108|79.0|Guantanamo Bay, Cuba|2007-08-27T15:26:00|2599-12-31T23:59:59
CU|SDDR|18.9821|-71.2878|589.0|Presa de Sabenta, Dominican Republic|2006-08-30T00:00:00|2599-12-31T23:59:59
CU|TGUH|14.057|-87.273|1151.0|Tegucigalpa, Honduras|2006-09-20T22:59:00|2599-12-31T23:59:59
CW|CAIB|22.497055|-79.47097|33.0|Caibarien, Villa Clara|2016-02-08T00:00:00|2599-12-31T23:59:59
CW|CCCC|21.193399|-77.417297|89.6|Cascorrro,Camaguey,Cuba|1998-01-01T00:00:00|2599-12-31T23:59:59
CW|CHIV|19.97648|-76.415131|20.0|Chivirico, Guama, Santiago de Cuba|2015-11-04T00:00:00|2599-12-31T23:59:59
CW|MARV|20.005285|-75.906555|100.0|Mar Verde, Santiago de Cuba|2016-09-13T00:00:00|2599-12-31T23:59:59
CW|MASC|20.175501|-74.231201|413.6|Maisi,Guantanamo,Cuba|1998-01-01T00:00:00|2599-12-31T23:59:59
CW|NMDO|20.559826|-74.982674|50.0|Presa Nuevo Mundo, Moa, Holguin|2015-09-09T00:00:00|2599-12-31T23:59:59
CW|PILO|19.91395|-77.408806|472.0|El Mamey, Pilon, Granma|2016-01-29T00:00:00|2599-12-31T23:59:59
CW|QMBU|20.19887|-74.811867|355.0|Quimbuelo, San Antonio del Sur, Guantanamo|2016-09-17T00:00:00|2599-12-31T23:59:59
CW|SOR|22.7932|-83.008598|100.0|Soroa,Artemisa,Cuba|1998-01-01T00:00:00|2599-12-31T23:59:59
CY|CBCY|19.73797|-79.758278|31.5|The Bluff, Cayman Brac, Cayman Islands|2011-01-01T00:00:00|2599-12-31T23:59:59
CY|FSCY|19.312851|-81.183533|1.7|Frank Sound, Grand Cayman, Cayman Islands|2011-01-01T00:00:00|2599-12-31T23:59:59
CY|LCCY|19.667603|-80.08213|5.5|Blossom Village, Little Cayman, Cayman Islands|2011-01-01T00:00:00|2599-12-31T23:59:59
CZ|KHC|49.130901|13.5782|700.0|Kasperske Hory|1973-01-01T00:00:00|2599-12-31T23:59:59
DK|ANGG|65.616302|-37.6371|9.0|Tasiilaq, Greenland|2010-08-02T00:00:00|2599-12-31T23:59:59
